;GPS@@@
;Ver=1.1.0
;DIP=2009-00152-00
;Date=2024-May-21 20:49:48
;Offset_m=0.00,0.00,0.00
;Latency_s=0.00
;---------------------------------------------------------------------------------------------------------------------------------------------
traces,odo_tick,pos(m),time_elapsed(s),GPS
2,0,0.0,1.65193104744,"$GPGGA,193213.20,4029.0873494,N,10650.4486388,W,4,24,1.0,2070.155,M,-12.177,M,1.2,0000*46"
7,0,0.0,2.69129490852,"$GPGGA,193214.20,4029.0872091,N,10650.4489635,W,4,25,0.9,2070.173,M,-12.177,M,2.2,0000*43"
9,0,0.0,3.70820808411,"$GPGGA,193215.20,4029.0871511,N,10650.4490462,W,4,25,0.9,2070.158,M,-12.177,M,1.2,0000*4E"
17,0,0.0,4.64684677124,"$GPGGA,193216.20,4029.0869870,N,10650.4494191,W,4,25,0.9,2070.176,M,-12.177,M,2.2,0000*4C"
26,0,0.0,5.71747779846,"$GPGGA,193217.20,4029.0867042,N,10650.4499918,W,4,25,0.9,2070.262,M,-12.177,M,1.2,0000*4B"
35,0,0.0,6.64365291595,"$GPGGA,193218.20,4029.0864550,N,10650.4504508,W,4,26,0.9,2070.298,M,-12.177,M,2.2,0000*4C"
43,0,0.0,7.67758512497,"$GPGGA,193219.20,4029.0862044,N,10650.4509665,W,4,25,0.9,2070.380,M,-12.177,M,1.2,0000*46"
52,0,0.0,8.72856521606,"$GPGGA,193220.20,4029.0859967,N,10650.4514898,W,4,23,1.0,2070.429,M,-12.177,M,2.2,0000*45"
62,0,0.0,9.74847602844,"$GPGGA,193221.20,4029.0857325,N,10650.4520573,W,4,26,0.9,2070.475,M,-12.177,M,1.2,0000*4E"
70,0,0.0,10.656001091,"$GPGGA,193222.20,4029.0855223,N,10650.4526601,W,4,27,0.9,2070.531,M,-12.177,M,2.2,0000*4B"
76,0,0.0,11.6986055374,"$GPGGA,193223.20,4029.0853976,N,10650.4529747,W,4,26,0.9,2070.604,M,-12.177,M,1.2,0000*4C"
83,0,0.0,12.6245994568,"$GPGGA,193224.20,4029.0852887,N,10650.4533573,W,4,27,0.9,2070.661,M,-12.177,M,2.2,0000*4A"
91,0,0.0,13.6568756104,"$GPGGA,193225.20,4029.0850958,N,10650.4538723,W,4,26,1.0,2070.796,M,-12.177,M,1.2,0000*45"
99,0,0.0,14.6914548874,"$GPGGA,193226.20,4029.0848819,N,10650.4543930,W,4,26,1.0,2070.884,M,-12.177,M,2.2,0000*44"
107,0,0.0,15.7493867874,"$GPGGA,193227.20,4029.0846956,N,10650.4548807,W,4,26,1.0,2071.009,M,-12.177,M,1.2,0000*40"
116,0,0.0,16.6938648224,"$GPGGA,193228.20,4029.0844469,N,10650.4554847,W,4,25,1.0,2071.117,M,-12.177,M,2.2,0000*4B"
125,0,0.0,17.6669635773,"$GPGGA,193229.20,4029.0842166,N,10650.4560060,W,4,25,1.0,2071.229,M,-12.177,M,1.2,0000*41"
135,0,0.0,18.623374939,"$GPGGA,193230.20,4029.0839877,N,10650.4565339,W,4,26,1.0,2071.322,M,-12.177,M,2.2,0000*4C"
143,0,0.0,19.7477359772,"$GPGGA,193231.20,4029.0837689,N,10650.4571180,W,4,24,1.0,2071.384,M,-12.177,M,3.2,0000*46"
151,0,0.0,20.7074127197,"$GPGGA,193232.20,4029.0835908,N,10650.4575462,W,4,26,1.0,2071.469,M,-12.177,M,4.2,0000*4D"
158,0,0.0,21.7506523132,"$GPGGA,193233.20,4029.0833991,N,10650.4579601,W,4,27,1.0,2071.521,M,-12.177,M,5.2,0000*4C"
167,0,0.0,22.6732387543,"$GPGGA,193234.20,4029.0831513,N,10650.4585030,W,4,27,1.0,2071.634,M,-12.177,M,6.2,0000*4C"
175,0,0.0,23.7490520477,"$GPGGA,193235.20,4029.0829166,N,10650.4590161,W,4,26,1.0,2071.714,M,-12.177,M,1.2,0000*46"
183,0,0.0,24.6768264771,"$GPGGA,193236.20,4029.0827410,N,10650.4594783,W,4,28,0.7,2071.801,M,-12.177,M,2.2,0000*41"
191,0,0.0,25.6964092255,"$GPGGA,193237.20,4029.0825237,N,10650.4600008,W,4,27,1.1,2071.950,M,-12.177,M,1.2,0000*45"
200,0,0.0,26.6331691742,"$GPGGA,193238.20,4029.0823487,N,10650.4605146,W,4,28,1.0,2072.056,M,-12.177,M,2.2,0000*4E"
208,0,0.0,27.6786231995,"$GPGGA,193239.20,4029.0821777,N,10650.4609313,W,4,28,1.0,2072.208,M,-12.177,M,1.2,0000*45"
216,0,0.0,28.6384143829,"$GPGGA,193240.20,4029.0819670,N,10650.4614930,W,4,26,1.1,2072.361,M,-12.177,M,2.2,0000*43"
224,0,0.0,29.6864967346,"$GPGGA,193241.20,4029.0817737,N,10650.4619458,W,4,26,1.1,2072.523,M,-12.177,M,1.2,0000*43"
232,0,0.0,30.6228046417,"$GPGGA,193242.20,4029.0815994,N,10650.4623698,W,4,26,1.1,2072.690,M,-12.177,M,2.2,0000*4A"
239,0,0.0,31.6539840698,"$GPGGA,193243.20,4029.0814124,N,10650.4628379,W,4,26,1.1,2072.816,M,-12.177,M,1.2,0000*4B"
245,0,0.0,32.5805473328,"$GPGGA,193244.20,4029.0812631,N,10650.4631883,W,4,26,1.0,2072.967,M,-12.177,M,2.2,0000*4A"
252,0,0.0,33.6043701172,"$GPGGA,193245.20,4029.0810597,N,10650.4636086,W,4,24,1.0,2073.145,M,-12.177,M,1.2,0000*44"
258,0,0.0,34.6227531433,"$GPGGA,193246.20,4029.0809007,N,10650.4639448,W,4,24,1.2,2073.242,M,-12.177,M,2.2,0000*4F"
263,0,0.0,36.6357650757,"$GPGGA,193247.20,4029.0807673,N,10650.4642660,W,4,26,1.1,2073.340,M,-12.177,M,1.2,0000*40"
263,0,0.0,36.6360244751,"$GPGGA,193248.20,4029.0807338,N,10650.4643789,W,4,25,1.0,2073.355,M,-12.177,M,2.2,0000*47"
263,0,0.0,36.6362495422,"$GPGGA,193249.20,4029.0807327,N,10650.4643797,W,4,25,1.1,2073.354,M,-12.177,M,1.2,0000*44"
