;GPS@@@
;Ver=1.1.0
;DIP=2009-00152-00
;Date=2024-May-21 20:19:05
;Offset_m=0.00,0.00,0.00
;Latency_s=0.00
;---------------------------------------------------------------------------------------------------------------------------------------------
traces,odo_tick,pos(m),time_elapsed(s),GPS
1,0,0.0,1.29117596149,"$GPGGA,190130.20,4029.0779039,N,10650.4408103,W,4,27,1.2,2069.575,M,-12.177,M,4.2,0000*4C"
11,0,0.0,2.30415296555,"$GPGGA,190131.20,4029.0775899,N,10650.4414022,W,4,27,1.2,2069.601,M,-12.177,M,5.2,0000*4D"
20,0,0.0,3.34433698654,"$GPGGA,190132.20,4029.0773819,N,10650.4418953,W,4,27,1.2,2069.661,M,-12.177,M,6.2,0000*46"
29,0,0.0,4.31005191803,"$GPGGA,190133.20,4029.0772146,N,10650.4424540,W,4,27,1.2,2069.734,M,-12.177,M,7.2,0000*44"
38,0,0.0,5.31600904465,"$GPGGA,190134.20,4029.0770220,N,10650.4430337,W,4,27,1.2,2069.887,M,-12.177,M,8.2,0000*49"
41,0,0.0,6.31949806213,"$GPGGA,190135.20,4029.0768956,N,10650.4434420,W,4,27,1.2,2069.983,M,-12.177,M,1.2,0000*42"
45,0,0.0,7.29503822327,"$GPGGA,190136.20,4029.0773751,N,10650.4440392,W,1,26,0.6,2073.318,M,-12.177,M,2.2,*4E"
57,0,0.0,8.36538028717,"$GPGGA,190137.20,4029.0767561,N,10650.4446639,W,1,27,0.9,2073.544,M,-12.177,M,1.2,*4B"
67,0,0.0,9.29466724396,"$GPGGA,190138.20,4029.0763559,N,10650.4450262,W,5,27,0.9,2070.776,M,-12.177,M,2.2,0000*41"
77,0,0.0,10.3388519287,"$GPGGA,190139.20,4029.0760988,N,10650.4456862,W,5,27,0.9,2070.896,M,-12.177,M,3.2,0000*4F"
88,0,0.0,11.2971143723,"$GPGGA,190140.20,4029.0757840,N,10650.4463925,W,5,27,0.9,2070.913,M,-12.177,M,4.2,0000*4F"
98,0,0.0,12.3263349533,"$GPGGA,190141.20,4029.0755195,N,10650.4468909,W,5,27,0.8,2071.115,M,-12.177,M,1.2,0000*43"
107,0,0.0,13.345826149,"$GPGGA,190142.20,4029.0752354,N,10650.4475420,W,5,25,0.8,2071.200,M,-12.177,M,2.2,0000*44"
116,0,0.0,14.3811731339,"$GPGGA,190143.20,4029.0750374,N,10650.4479846,W,5,27,0.8,2071.301,M,-12.177,M,1.2,0000*44"
126,0,0.0,15.3421039581,"$GPGGA,190144.20,4029.0747428,N,10650.4486402,W,5,27,0.8,2071.394,M,-12.177,M,2.2,0000*48"
135,0,0.0,16.3316478729,"$GPGGA,190145.20,4029.0744656,N,10650.4493220,W,5,27,0.8,2071.473,M,-12.177,M,1.2,0000*4E"
147,0,0.0,17.3610534668,"$GPGGA,190146.20,4029.0741972,N,10650.4499361,W,5,27,0.8,2071.491,M,-12.177,M,2.2,0000*40"
160,0,0.0,18.2907581329,"$GPGGA,190147.20,4029.0738599,N,10650.4505610,W,5,27,0.8,2071.643,M,-12.177,M,3.2,0000*4D"
168,0,0.0,19.3369102478,"$GPGGA,190148.20,4029.0736791,N,10650.4511642,W,5,26,0.9,2071.738,M,-12.177,M,4.2,0000*4E"
177,0,0.0,21.2972335815,"$GPGGA,190149.20,4029.0733568,N,10650.4516345,W,5,26,0.9,2071.832,M,-12.177,M,1.2,0000*4B"
178,0,0.0,21.29778862,"$GPGGA,190150.20,4029.0732162,N,10650.4522097,W,5,26,0.9,2072.023,M,-12.177,M,2.2,0000*4F"
187,0,0.0,22.3718891144,"$GPGGA,190151.20,4029.0730374,N,10650.4528115,W,5,27,0.9,2072.082,M,-12.177,M,1.2,0000*41"
198,0,0.0,23.3817691803,"$GPGGA,190152.20,4029.0727230,N,10650.4534594,W,5,25,0.9,2072.214,M,-12.177,M,2.2,0000*49"
202,0,0.0,24.3090953827,"$GPGGA,190153.20,4029.0724058,N,10650.4540812,W,5,27,0.9,2072.296,M,-12.177,M,1.2,0000*4C"
206,0,0.0,25.3170204163,"$GPGGA,190154.20,4029.0723801,N,10650.4543408,W,4,27,0.9,2072.257,M,-12.177,M,2.2,0000*43"
208,0,0.0,28.3778686523,"$GPGGA,190155.20,4029.0722058,N,10650.4546560,W,4,26,0.9,2072.377,M,-12.177,M,1.2,0000*4C"
208,0,0.0,28.378326416,"$GPGGA,190156.20,4029.0720003,N,10650.4551109,W,4,27,0.9,2072.467,M,-12.177,M,2.2,0000*4A"
209,0,0.0,28.378736496,"$GPGGA,190157.20,4029.0719398,N,10650.4552707,W,4,26,0.9,2072.506,M,-12.177,M,1.2,0000*4F"
213,0,0.0,29.2848434448,"$GPGGA,190158.20,4029.0717356,N,10650.4556845,W,4,27,0.9,2072.610,M,-12.177,M,2.2,0000*47"
216,0,0.0,30.2959461212,"$GPGGA,190159.20,4029.0716403,N,10650.4561217,W,4,27,0.9,2072.730,M,-12.177,M,1.2,0000*49"
218,0,0.0,31.3096656799,"$GPGGA,190200.20,4029.0716381,N,10650.4562937,W,4,27,0.9,2072.811,M,-12.177,M,2.2,0000*4E"
221,0,0.0,35.3302726746,"$GPGGA,190201.20,4029.0714395,N,10650.4566191,W,5,26,0.9,2072.900,M,-12.177,M,1.2,0000*4A"
221,0,0.0,35.3305282593,"$GPGGA,190202.20,4029.0714479,N,10650.4566170,W,5,26,0.9,2072.908,M,-12.177,M,2.2,0000*48"
221,0,0.0,35.3307380676,"$GPGGA,190203.20,4029.0710344,N,10650.4568523,W,4,26,0.9,2072.944,M,-12.177,M,3.2,0000*40"
221,0,0.0,35.3309745789,"$GPGGA,190204.20,4029.0710329,N,10650.4568509,W,4,26,0.9,2072.962,M,-12.177,M,4.2,0000*47"
