;GPS@@@
;Ver=1.1.0
;DIP=2009-00152-00
;Date=2024-May-21 21:55:23
;Offset_m=0.00,0.00,0.00
;Latency_s=0.00
;---------------------------------------------------------------------------------------------------------------------------------------------
traces,odo_tick,pos(m),time_elapsed(s),GPS
1,0,0.0,6.01810598373,"$GPGGA,203749.20,4029.0806541,N,10650.4637970,W,4,28,1.0,2073.281,M,-12.177,M,1.2,0000*4D"
1,0,0.0,6.01859807968,"$GPGGA,203750.20,4029.0806573,N,10650.4637989,W,4,28,1.0,2073.274,M,-12.177,M,2.2,0000*4B"
2,0,0.0,6.01900815964,"$GPGGA,203751.20,4029.0806540,N,10650.4637976,W,4,28,1.0,2073.265,M,-12.177,M,1.2,0000*49"
2,0,0.0,6.01940822601,"$GPGGA,203752.20,4029.0806552,N,10650.4637983,W,4,28,1.0,2073.262,M,-12.177,M,2.2,0000*47"
2,0,0.0,6.01980781555,"$GPGGA,203753.20,4029.0806552,N,10650.4637982,W,4,27,1.0,2073.275,M,-12.177,M,1.2,0000*4D"
5,0,0.0,6.98103618622,"$GPGGA,203754.20,4029.0807565,N,10650.4636221,W,4,27,1.0,2073.177,M,-12.177,M,2.2,0000*4E"
12,0,0.0,8.00488376617,"$GPGGA,203755.20,4029.0810195,N,10650.4632702,W,4,27,0.9,2073.062,M,-12.177,M,1.2,0000*4C"
19,0,0.0,8.920170784,"$GPGGA,203756.20,4029.0813145,N,10650.4628804,W,4,27,0.9,2072.857,M,-12.177,M,2.2,0000*4F"
24,0,0.0,9.97333240509,"$GPGGA,203757.20,4029.0816196,N,10650.4623368,W,4,27,0.9,2072.610,M,-12.177,M,1.2,0000*41"
31,0,0.0,11.0206851959,"$GPGGA,203758.20,4029.0817573,N,10650.4618689,W,4,27,0.9,2072.476,M,-12.177,M,2.2,0000*43"
38,0,0.0,11.951748848,"$GPGGA,203759.20,4029.0819578,N,10650.4613232,W,4,27,0.9,2072.337,M,-12.177,M,1.2,0000*49"
41,0,0.0,12.9759340286,"$GPGGA,203800.20,4029.0821506,N,10650.4607274,W,4,27,0.9,2072.175,M,-12.177,M,2.2,0000*48"
48,0,0.0,14.0110187531,"$GPGGA,203801.20,4029.0823486,N,10650.4601538,W,4,25,1.0,2072.008,M,-12.177,M,1.2,0000*49"
59,0,0.0,15.0365428925,"$GPGGA,203802.20,4029.0825814,N,10650.4595940,W,4,26,0.9,2071.864,M,-12.177,M,2.2,0000*4F"
68,0,0.0,16.0662574768,"$GPGGA,203803.20,4029.0828201,N,10650.4589819,W,4,25,0.9,2071.747,M,-12.177,M,3.2,0000*41"
76,0,0.0,16.9776744843,"$GPGGA,203804.20,4029.0830068,N,10650.4585103,W,4,27,0.9,2071.664,M,-12.177,M,4.2,0000*49"
82,0,0.0,18.0059223175,"$GPGGA,203805.20,4029.0831714,N,10650.4581224,W,4,26,0.9,2071.576,M,-12.177,M,1.2,0000*43"
88,0,0.0,19.0263690948,"$GPGGA,203806.20,4029.0833150,N,10650.4578139,W,4,26,0.9,2071.496,M,-12.177,M,2.2,0000*41"
97,0,0.0,20.0572834015,"$GPGGA,203807.20,4029.0835520,N,10650.4573415,W,4,26,0.9,2071.415,M,-12.177,M,1.2,0000*4D"
106,0,0.0,20.9937725067,"$GPGGA,203808.20,4029.0838265,N,10650.4568028,W,4,27,0.9,2071.306,M,-12.177,M,2.2,0000*4E"
114,0,0.0,21.9263858795,"$GPGGA,203809.20,4029.0840482,N,10650.4562592,W,4,29,0.7,2071.234,M,-12.177,M,1.2,0000*42"
122,0,0.0,23.0452823639,"$GPGGA,203810.20,4029.0842439,N,10650.4557310,W,4,30,0.7,2071.142,M,-12.177,M,2.2,0000*4B"
134,0,0.0,23.9617080688,"$GPGGA,203811.20,4029.0844715,N,10650.4550401,W,4,29,0.9,2071.021,M,-12.177,M,1.2,0000*40"
145,0,0.0,24.9836940765,"$GPGGA,203812.20,4029.0847596,N,10650.4543382,W,4,29,0.9,2070.844,M,-12.177,M,2.2,0000*4E"
154,0,0.0,26.0063247681,"$GPGGA,203813.20,4029.0849765,N,10650.4537901,W,4,30,0.9,2070.732,M,-12.177,M,1.2,0000*48"
164,0,0.0,26.9412212372,"$GPGGA,203814.20,4029.0852341,N,10650.4532117,W,4,30,0.9,2070.609,M,-12.177,M,2.2,0000*47"
171,0,0.0,27.9629745483,"$GPGGA,203815.20,4029.0854687,N,10650.4527421,W,4,30,0.9,2070.498,M,-12.177,M,1.2,0000*42"
180,0,0.0,28.9134674072,"$GPGGA,203816.20,4029.0856350,N,10650.4523238,W,4,29,0.9,2070.457,M,-12.177,M,2.2,0000*4E"
189,0,0.0,29.9528751373,"$GPGGA,203817.20,4029.0858530,N,10650.4516896,W,4,30,0.9,2070.437,M,-12.177,M,1.2,0000*44"
198,0,0.0,30.9854183197,"$GPGGA,203818.20,4029.0860627,N,10650.4511520,W,4,31,0.9,2070.361,M,-12.177,M,2.2,0000*44"
209,0,0.0,31.9124794006,"$GPGGA,203819.20,4029.0863282,N,10650.4505262,W,4,31,0.9,2070.285,M,-12.177,M,1.2,0000*41"
217,0,0.0,32.9568328857,"$GPGGA,203820.20,4029.0865412,N,10650.4500054,W,4,30,0.9,2070.244,M,-12.177,M,2.2,0000*4F"
225,0,0.0,33.9941596985,"$GPGGA,203821.20,4029.0867266,N,10650.4495388,W,4,30,0.9,2070.182,M,-12.177,M,3.2,0000*4E"
235,0,0.0,34.913269043,"$GPGGA,203822.20,4029.0869630,N,10650.4488959,W,4,30,0.9,2070.119,M,-12.177,M,4.2,0000*4B"
245,0,0.0,35.9444046021,"$GPGGA,203823.20,4029.0872052,N,10650.4483319,W,4,30,0.9,2070.067,M,-12.177,M,1.2,0000*4A"
252,0,0.0,39.991481781,"$GPGGA,203824.20,4029.0874210,N,10650.4478087,W,4,30,0.9,2070.012,M,-12.177,M,2.2,0000*4E"
252,0,0.0,39.991733551,"$GPGGA,203825.20,4029.0874329,N,10650.4477671,W,4,30,0.9,2070.017,M,-12.177,M,1.2,0000*42"
252,0,0.0,39.9919471741,"$GPGGA,203826.20,4029.0874310,N,10650.4477675,W,4,31,0.9,2070.028,M,-12.177,M,2.2,0000*41"
252,0,0.0,39.9921531677,"$GPGGA,203827.20,4029.0874314,N,10650.4477683,W,4,29,0.9,2070.023,M,-12.177,M,3.2,0000*4E"
252,0,0.0,39.992351532,"$GPGGA,203828.20,4029.0874442,N,10650.4477649,W,4,31,0.9,2069.997,M,-12.177,M,4.2,0000*43"
