;GPS@@@
;Ver=1.1.0
;DIP=2009-00152-00
;Date=2024-May-21 21:51:02
;Offset_m=0.00,0.00,0.00
;Latency_s=0.00
;---------------------------------------------------------------------------------------------------------------------------------------------
traces,odo_tick,pos(m),time_elapsed(s),GPS
1,0,0.0,20.2407512665,"$GPGGA,203327.20,4029.0768974,N,10650.4610402,W,4,29,0.9,2074.008,M,-12.177,M,1.2,0000*4C"
1,0,0.0,20.241350174,"$GPGGA,203328.20,4029.0768997,N,10650.4610471,W,4,29,0.9,2073.987,M,-12.177,M,2.2,0000*40"
1,0,0.0,20.2418365479,"$GPGGA,203329.20,4029.0768924,N,10650.4610367,W,4,29,0.9,2074.015,M,-12.177,M,1.2,0000*4F"
1,0,0.0,20.2422866821,"$GPGGA,203330.20,4029.0768917,N,10650.4610365,W,4,29,0.9,2074.020,M,-12.177,M,2.2,0000*40"
1,0,0.0,20.2427425385,"$GPGGA,203331.20,4029.0768942,N,10650.4610424,W,4,29,0.9,2074.020,M,-12.177,M,3.2,0000*42"
1,0,0.0,20.2432346344,"$GPGGA,203332.20,4029.0768968,N,10650.4610447,W,4,29,0.9,2074.010,M,-12.177,M,4.2,0000*48"
1,0,0.0,20.2438907623,"$GPGGA,203333.20,4029.0768944,N,10650.4610408,W,4,28,0.9,2074.001,M,-12.177,M,1.2,0000*48"
1,0,0.0,20.244354248,"$GPGGA,203334.20,4029.0768971,N,10650.4610418,W,4,28,0.9,2073.994,M,-12.177,M,2.2,0000*49"
1,0,0.0,20.2448253632,"$GPGGA,203335.20,4029.0768976,N,10650.4610441,W,4,28,0.9,2073.992,M,-12.177,M,1.2,0000*46"
1,0,0.0,20.2452583313,"$GPGGA,203336.20,4029.0769016,N,10650.4610478,W,4,28,0.9,2073.991,M,-12.177,M,2.2,0000*41"
2,0,0.0,20.2465419769,"$GPGGA,203337.20,4029.0768945,N,10650.4610390,W,4,29,0.9,2074.015,M,-12.177,M,1.2,0000*4F"
2,0,0.0,20.2470016479,"$GPGGA,203338.20,4029.0768938,N,10650.4610410,W,4,29,0.9,2074.008,M,-12.177,M,2.2,0000*4A"
2,0,0.0,20.2474594116,"$GPGGA,203339.20,4029.0768936,N,10650.4610376,W,4,29,0.9,2074.013,M,-12.177,M,1.2,0000*4B"
2,0,0.0,20.2478923798,"$GPGGA,203340.20,4029.0768979,N,10650.4610430,W,4,29,0.9,2074.007,M,-12.177,M,2.2,0000*4D"
2,0,0.0,20.2483520508,"$GPGGA,203341.20,4029.0768934,N,10650.4610415,W,4,29,0.9,2074.014,M,-12.177,M,1.2,0000*43"
2,0,0.0,20.2487945557,"$GPGGA,203342.20,4029.0768960,N,10650.4610385,W,4,29,0.9,2074.007,M,-12.177,M,2.2,0000*4E"
2,0,0.0,20.2492523193,"$GPGGA,203343.20,4029.0768933,N,10650.4610351,W,4,27,0.9,2074.024,M,-12.177,M,1.2,0000*4C"
2,0,0.0,20.2497138977,"$GPGGA,203344.20,4029.0768954,N,10650.4610367,W,4,27,0.9,2074.018,M,-12.177,M,2.2,0000*43"
2,0,0.0,20.2501449585,"$GPGGA,203345.20,4029.0768997,N,10650.4610159,W,4,28,1.0,2074.023,M,-12.177,M,1.2,0000*4E"
2,0,0.0,20.2505664825,"$GPGGA,203346.20,4029.0769016,N,10650.4610130,W,4,28,1.0,2074.025,M,-12.177,M,2.2,0000*46"
10,0,0.0,21.2784385681,"$GPGGA,203347.20,4029.0772059,N,10650.4606118,W,4,27,1.0,2073.805,M,-12.177,M,3.2,0000*48"
17,0,0.0,22.2196540833,"$GPGGA,203348.20,4029.0773848,N,10650.4601731,W,4,27,1.0,2073.589,M,-12.177,M,4.2,0000*4A"
26,0,0.0,23.2489967346,"$GPGGA,203349.20,4029.0776354,N,10650.4596999,W,4,27,1.0,2073.312,M,-12.177,M,5.2,0000*4C"
34,0,0.0,24.3074321747,"$GPGGA,203350.20,4029.0778782,N,10650.4593524,W,4,28,1.0,2073.126,M,-12.177,M,6.2,0000*43"
44,0,0.0,25.2472763062,"$GPGGA,203351.20,4029.0781956,N,10650.4587870,W,4,27,1.0,2072.853,M,-12.177,M,7.2,0000*4E"
54,0,0.0,26.2733058929,"$GPGGA,203352.20,4029.0785289,N,10650.4582563,W,4,27,1.0,2072.584,M,-12.177,M,8.2,0000*42"
64,0,0.0,27.2046127319,"$GPGGA,203353.20,4029.0788451,N,10650.4576218,W,4,28,1.0,2072.288,M,-12.177,M,1.2,0000*40"
75,0,0.0,28.2540130615,"$GPGGA,203354.20,4029.0790298,N,10650.4565403,W,1,29,0.5,2073.451,M,-12.177,M,2.2,*43"
85,0,0.0,29.3048439026,"$GPGGA,203355.20,4029.0793954,N,10650.4566377,W,1,26,1.0,2074.028,M,-12.177,M,1.2,*48"
96,0,0.0,30.242515564,"$GPGGA,203356.20,4029.0796315,N,10650.4559049,W,4,26,1.0,2071.785,M,-12.177,M,2.2,0000*40"
106,0,0.0,31.2718753815,"$GPGGA,203357.20,4029.0798483,N,10650.4552626,W,4,27,1.0,2071.642,M,-12.177,M,1.2,0000*4B"
115,0,0.0,32.2003440857,"$GPGGA,203358.20,4029.0800892,N,10650.4547073,W,4,28,1.0,2071.498,M,-12.177,M,2.2,0000*4D"
122,0,0.0,33.2254257202,"$GPGGA,203359.20,4029.0802922,N,10650.4542340,W,4,28,1.0,2071.440,M,-12.177,M,1.2,0000*44"
130,0,0.0,34.2522163391,"$GPGGA,203400.20,4029.0804423,N,10650.4537923,W,4,28,1.0,2071.358,M,-12.177,M,2.2,0000*45"
139,0,0.0,35.2714233398,"$GPGGA,203401.20,4029.0806825,N,10650.4532160,W,4,28,1.0,2071.320,M,-12.177,M,1.2,0000*4A"
149,0,0.0,36.2042961121,"$GPGGA,203402.20,4029.0809317,N,10650.4527203,W,4,28,1.0,2071.227,M,-12.177,M,2.2,0000*4B"
159,0,0.0,37.2343864441,"$GPGGA,203403.20,4029.0812037,N,10650.4520159,W,4,28,1.0,2071.168,M,-12.177,M,1.2,0000*41"
169,0,0.0,38.290222168,"$GPGGA,203404.20,4029.0814724,N,10650.4514077,W,4,29,1.0,2071.023,M,-12.177,M,2.2,0000*43"
181,0,0.0,39.2108345032,"$GPGGA,203405.20,4029.0817418,N,10650.4507131,W,4,28,1.0,2070.864,M,-12.177,M,1.2,0000*44"
191,0,0.0,40.2794799805,"$GPGGA,203406.20,4029.0819786,N,10650.4499592,W,4,28,1.0,2070.600,M,-12.177,M,2.2,0000*49"
200,0,0.0,41.2039871216,"$GPGGA,203407.20,4029.0821476,N,10650.4494618,W,4,28,1.0,2070.512,M,-12.177,M,3.2,0000*42"
210,0,0.0,42.2464828491,"$GPGGA,203408.20,4029.0824162,N,10650.4488308,W,4,28,1.0,2070.332,M,-12.177,M,4.2,0000*42"
220,0,0.0,43.2699317932,"$GPGGA,203409.20,4029.0826245,N,10650.4482668,W,4,29,1.0,2070.215,M,-12.177,M,5.2,0000*4A"
228,0,0.0,44.2074127197,"$GPGGA,203410.20,4029.0827945,N,10650.4477539,W,4,29,1.0,2070.135,M,-12.177,M,6.2,0000*47"
237,0,0.0,45.2077255249,"$GPGGA,203411.20,4029.0829899,N,10650.4471163,W,4,31,0.9,2070.070,M,-12.177,M,1.2,0000*43"
246,0,0.0,46.2459945679,"$GPGGA,203412.20,4029.0831848,N,10650.4466029,W,4,31,0.9,2070.020,M,-12.177,M,2.2,0000*4A"
255,0,0.0,47.179485321,"$GPGGA,203413.20,4029.0833710,N,10650.4460881,W,4,31,0.9,2069.994,M,-12.177,M,1.2,0000*4A"
263,0,0.0,48.1880073547,"$GPGGA,203414.20,4029.0835772,N,10650.4455050,W,4,30,0.9,2069.959,M,-12.177,M,2.2,0000*4E"
266,0,0.0,49.2272911072,"$GPGGA,203415.20,4029.0836489,N,10650.4452947,W,4,30,0.9,2069.928,M,-12.177,M,1.2,0000*46"
270,0,0.0,50.1635360718,"$GPGGA,203416.20,4029.0837588,N,10650.4450406,W,4,30,0.9,2069.911,M,-12.177,M,2.2,0000*47"
274,0,0.0,56.7907104492,"$GPGGA,203417.20,4029.0838649,N,10650.4447527,W,4,30,0.9,2069.867,M,-12.177,M,1.2,0000*40"
274,0,0.0,56.7912025452,"$GPGGA,203418.20,4029.0838677,N,10650.4447116,W,4,30,0.9,2069.889,M,-12.177,M,2.2,0000*47"
274,0,0.0,56.7916145325,"$GPGGA,203419.20,4029.0838718,N,10650.4447161,W,4,30,0.9,2069.875,M,-12.177,M,3.2,0000*4C"
274,0,0.0,56.7920188904,"$GPGGA,203420.20,4029.0838782,N,10650.4447221,W,4,30,0.9,2069.852,M,-12.177,M,4.2,0000*40"
274,0,0.0,56.7924194336,"$GPGGA,203421.20,4029.0838781,N,10650.4447208,W,4,30,0.9,2069.855,M,-12.177,M,1.2,0000*4B"
274,0,0.0,56.7928123474,"$GPGGA,203422.20,4029.0838813,N,10650.4447243,W,4,30,0.9,2069.840,M,-12.177,M,2.2,0000*44"
274,0,0.0,56.7932090759,"$GPGGA,203423.20,4029.0838703,N,10650.4447118,W,4,30,1.0,2069.888,M,-12.177,M,1.2,0000*49"
