;GPS@@@
;Ver=1.1.0
;DIP=2009-00152-00
;Date=2024-May-21 21:49:49
;Offset_m=0.00,0.00,0.00
;Latency_s=0.00
;---------------------------------------------------------------------------------------------------------------------------------------------
traces,odo_tick,pos(m),time_elapsed(s),GPS
1,0,0.0,1.59213197231,"$GPGGA,203215.20,4029.0829195,N,10650.4440940,W,5,31,1.1,2069.992,M,-12.177,M,1.2,0000*4A"
3,0,0.0,2.62331700325,"$GPGGA,203216.20,4029.0828956,N,10650.4441580,W,5,31,1.1,2069.988,M,-12.177,M,2.2,0000*46"
12,0,0.0,3.58608102798,"$GPGGA,203217.20,4029.0826602,N,10650.4446785,W,5,29,1.4,2070.014,M,-12.177,M,1.2,0000*4C"
23,0,0.0,4.6427898407,"$GPGGA,203218.20,4029.0823946,N,10650.4452455,W,5,29,0.9,2070.073,M,-12.177,M,2.2,0000*4C"
33,0,0.0,5.67034292221,"$GPGGA,203219.20,4029.0821115,N,10650.4458858,W,5,29,0.9,2070.146,M,-12.177,M,1.2,0000*4E"
43,0,0.0,6.62821912766,"$GPGGA,203220.20,4029.0818433,N,10650.4464705,W,5,29,0.9,2070.240,M,-12.177,M,2.2,0000*41"
53,0,0.0,7.67473888397,"$GPGGA,203221.20,4029.0815781,N,10650.4469936,W,4,29,0.9,2070.279,M,-12.177,M,1.2,0000*4C"
60,0,0.0,8.60499858856,"$GPGGA,203222.20,4029.0814113,N,10650.4473615,W,5,28,0.9,2070.389,M,-12.177,M,2.2,0000*4B"
69,0,0.0,9.63160324097,"$GPGGA,203223.20,4029.0811557,N,10650.4479556,W,5,29,0.9,2070.492,M,-12.177,M,1.2,0000*4A"
76,0,0.0,10.6435718536,"$GPGGA,203224.20,4029.0809840,N,10650.4484409,W,5,29,0.9,2070.571,M,-12.177,M,2.2,0000*49"
84,0,0.0,11.5830278397,"$GPGGA,203225.20,4029.0808028,N,10650.4488745,W,5,29,0.9,2070.703,M,-12.177,M,1.2,0000*4C"
91,0,0.0,12.6413316727,"$GPGGA,203226.20,4029.0806145,N,10650.4493267,W,5,29,0.9,2070.847,M,-12.177,M,2.2,0000*48"
98,0,0.0,13.584236145,"$GPGGA,203227.20,4029.0804480,N,10650.4497167,W,5,30,0.9,2070.986,M,-12.177,M,1.2,0000*47"
106,0,0.0,14.6074571609,"$GPGGA,203228.20,4029.0802410,N,10650.4501664,W,5,30,0.9,2071.128,M,-12.177,M,2.2,0000*43"
113,0,0.0,15.6379461288,"$GPGGA,203229.20,4029.0800395,N,10650.4506390,W,5,29,0.9,2071.230,M,-12.177,M,1.2,0000*42"
119,0,0.0,16.6554260254,"$GPGGA,203230.20,4029.0798225,N,10650.4510455,W,5,30,0.9,2071.305,M,-12.177,M,2.2,0000*4B"
127,0,0.0,17.6796875,"$GPGGA,203231.20,4029.0796393,N,10650.4514600,W,5,28,1.0,2071.398,M,-12.177,M,1.2,0000*48"
134,0,0.0,18.5876026154,"$GPGGA,203232.20,4029.0794900,N,10650.4518794,W,5,28,1.0,2071.490,M,-12.177,M,2.2,0000*45"
142,0,0.0,19.6321754456,"$GPGGA,203233.20,4029.0792912,N,10650.4525443,W,5,29,0.9,2071.554,M,-12.177,M,1.2,0000*45"
149,0,0.0,20.654340744,"$GPGGA,203234.20,4029.0791786,N,10650.4528977,W,5,28,0.9,2071.607,M,-12.177,M,2.2,0000*42"
158,0,0.0,21.5673389435,"$GPGGA,203235.20,4029.0788961,N,10650.4534416,W,4,29,0.9,2071.683,M,-12.177,M,1.2,0000*44"
166,0,0.0,22.623085022,"$GPGGA,203236.20,4029.0786035,N,10650.4539066,W,5,28,0.9,2071.771,M,-12.177,M,2.2,0000*40"
172,0,0.0,23.6302585602,"$GPGGA,203237.20,4029.0784119,N,10650.4541603,W,5,28,0.9,2071.880,M,-12.177,M,1.2,0000*44"
180,0,0.0,24.6526756287,"$GPGGA,203238.20,4029.0781278,N,10650.4546000,W,5,28,0.9,2071.944,M,-12.177,M,2.2,0000*42"
183,0,0.0,25.6631622314,"$GPGGA,203239.20,4029.0779913,N,10650.4547419,W,5,27,1.0,2072.001,M,-12.177,M,1.2,0000*40"
185,0,0.0,26.5989246368,"$GPGGA,203240.20,4029.0779133,N,10650.4548259,W,5,27,1.0,2072.054,M,-12.177,M,2.2,0000*4A"
189,0,0.0,27.6243858337,"$GPGGA,203241.20,4029.0778069,N,10650.4550067,W,5,27,1.0,2072.133,M,-12.177,M,1.2,0000*41"
192,0,0.0,29.6542396545,"$GPGGA,203242.20,4029.0777087,N,10650.4551459,W,5,27,1.0,2072.197,M,-12.177,M,2.2,0000*48"
193,0,0.0,29.6547260284,"$GPGGA,203243.20,4029.0776882,N,10650.4552144,W,5,28,1.0,2072.221,M,-12.177,M,1.2,0000*4D"
195,0,0.0,30.5812206268,"$GPGGA,203244.20,4029.0776265,N,10650.4553208,W,5,28,1.0,2072.274,M,-12.177,M,2.2,0000*40"
200,0,0.0,31.6039543152,"$GPGGA,203245.20,4029.0774970,N,10650.4555365,W,5,28,1.0,2072.381,M,-12.177,M,1.2,0000*48"
203,0,0.0,32.6130638123,"$GPGGA,203246.20,4029.0773886,N,10650.4557673,W,5,28,1.0,2072.471,M,-12.177,M,2.2,0000*4F"
207,0,0.0,33.626537323,"$GPGGA,203247.20,4029.0772946,N,10650.4559735,W,5,28,1.0,2072.575,M,-12.177,M,1.2,0000*49"
211,0,0.0,34.5583267212,"$GPGGA,203248.20,4029.0772209,N,10650.4562371,W,5,28,1.0,2072.689,M,-12.177,M,2.2,0000*49"
215,0,0.0,35.5668258667,"$GPGGA,203249.20,4029.0771321,N,10650.4565094,W,5,27,1.0,2072.825,M,-12.177,M,1.2,0000*4B"
218,0,0.0,36.6042861938,"$GPGGA,203250.20,4029.0771096,N,10650.4566408,W,5,27,1.0,2072.885,M,-12.177,M,2.2,0000*47"
223,0,0.0,37.6459693909,"$GPGGA,203251.20,4029.0770479,N,10650.4570085,W,5,27,1.0,2073.002,M,-12.177,M,3.2,0000*43"
228,0,0.0,38.5915107727,"$GPGGA,203252.20,4029.0769904,N,10650.4573098,W,5,28,1.0,2073.136,M,-12.177,M,4.2,0000*4E"
234,0,0.0,39.6146087646,"$GPGGA,203253.20,4029.0769104,N,10650.4577155,W,5,28,1.0,2073.319,M,-12.177,M,1.2,0000*49"
239,0,0.0,40.6270103455,"$GPGGA,203254.20,4029.0768275,N,10650.4581221,W,5,28,1.0,2073.440,M,-12.177,M,2.2,0000*4B"
242,0,0.0,41.6470298767,"$GPGGA,203255.20,4029.0767700,N,10650.4583075,W,5,28,1.0,2073.522,M,-12.177,M,3.2,0000*47"
246,0,0.0,42.5780525208,"$GPGGA,203256.20,4029.0767033,N,10650.4585811,W,5,27,1.0,2073.599,M,-12.177,M,4.2,0000*47"
254,0,0.0,43.6112594604,"$GPGGA,203257.20,4029.0765410,N,10650.4591073,W,5,27,1.0,2073.779,M,-12.177,M,1.2,0000*41"
259,0,0.0,44.6201477051,"$GPGGA,203258.20,4029.0764280,N,10650.4594139,W,5,27,1.0,2073.923,M,-12.177,M,2.2,0000*48"
262,0,0.0,45.6274185181,"$GPGGA,203259.20,4029.0763272,N,10650.4596595,W,5,28,1.0,2074.007,M,-12.177,M,3.2,0000*45"
264,0,0.0,46.5596809387,"$GPGGA,203300.20,4029.0762588,N,10650.4597587,W,5,27,1.0,2074.069,M,-12.177,M,4.2,0000*49"
271,0,0.0,48.1138534546,"$GPGGA,203301.20,4029.0761244,N,10650.4601022,W,4,28,1.0,2074.171,M,-12.177,M,5.2,0000*4D"
271,0,0.0,48.1141052246,"$GPGGA,203302.20,4029.0760797,N,10650.4601851,W,5,28,1.0,2074.213,M,-12.177,M,6.2,0000*4D"
