;GPS@@@
;Ver=1.1.0
;DIP=2009-00152-00
;Date=2024-May-21 20:13:42
;Offset_m=0.00,0.00,0.00
;Latency_s=0.00
;---------------------------------------------------------------------------------------------------------------------------------------------
traces,odo_tick,pos(m),time_elapsed(s),GPS
2,0,0.0,1.56324994564,"$GPGGA,185607.20,4029.0770490,N,10650.4402302,W,4,28,0.9,2069.365,M,-12.177,M,1.2,0000*4B"
12,0,0.0,2.59240293503,"$GPGGA,185608.20,4029.0768233,N,10650.4408320,W,4,28,0.9,2069.405,M,-12.177,M,2.2,0000*4A"
20,0,0.0,3.52475500107,"$GPGGA,185609.20,4029.0766309,N,10650.4413038,W,4,28,0.9,2069.524,M,-12.177,M,1.2,0000*4C"
28,0,0.0,4.53618192673,"$GPGGA,185610.20,4029.0764384,N,10650.4418281,W,4,28,0.9,2069.644,M,-12.177,M,2.2,0000*4E"
34,0,0.0,5.54822206497,"$GPGGA,185611.20,4029.0763135,N,10650.4421659,W,4,28,0.9,2069.751,M,-12.177,M,1.2,0000*4D"
38,0,0.0,6.56735181808,"$GPGGA,185612.20,4029.0762031,N,10650.4424310,W,4,28,0.9,2069.807,M,-12.177,M,2.2,0000*48"
39,0,0.0,7.58691692352,"$GPGGA,185613.20,4029.0761525,N,10650.4425281,W,4,28,0.9,2069.834,M,-12.177,M,3.2,0000*43"
42,0,0.0,8.61067485809,"$GPGGA,185614.20,4029.0760909,N,10650.4426730,W,4,28,0.9,2069.865,M,-12.177,M,4.2,0000*48"
47,0,0.0,9.54038619995,"$GPGGA,185615.20,4029.0759512,N,10650.4429858,W,4,28,0.9,2069.939,M,-12.177,M,1.2,0000*46"
54,0,0.0,10.561006546,"$GPGGA,185616.20,4029.0757959,N,10650.4434071,W,4,28,0.9,2069.999,M,-12.177,M,2.2,0000*4E"
61,0,0.0,11.6040010452,"$GPGGA,185617.20,4029.0756168,N,10650.4438193,W,4,28,0.9,2070.103,M,-12.177,M,1.2,0000*45"
67,0,0.0,12.5497207642,"$GPGGA,185618.20,4029.0754540,N,10650.4441655,W,4,28,0.8,2070.175,M,-12.177,M,2.2,0000*46"
75,0,0.0,13.5732803345,"$GPGGA,185619.20,4029.0752291,N,10650.4446559,W,4,28,0.8,2070.301,M,-12.177,M,1.2,0000*40"
83,0,0.0,14.5392255783,"$GPGGA,185620.20,4029.0749747,N,10650.4451076,W,4,28,0.8,2070.406,M,-12.177,M,2.2,0000*43"
91,0,0.0,15.5987920761,"$GPGGA,185621.20,4029.0746889,N,10650.4455815,W,4,28,0.8,2070.499,M,-12.177,M,1.2,0000*4C"
99,0,0.0,16.5540294647,"$GPGGA,185622.20,4029.0744407,N,10650.4460870,W,4,28,0.8,2070.580,M,-12.177,M,2.2,0000*48"
107,0,0.0,17.5888137817,"$GPGGA,185623.20,4029.0742370,N,10650.4465331,W,4,28,1.0,2070.653,M,-12.177,M,1.2,0000*44"
114,0,0.0,18.6209011078,"$GPGGA,185624.20,4029.0740365,N,10650.4470034,W,4,28,1.0,2070.763,M,-12.177,M,2.2,0000*46"
122,0,0.0,19.5369281769,"$GPGGA,185625.20,4029.0738509,N,10650.4474155,W,4,27,1.1,2070.830,M,-12.177,M,1.2,0000*42"
128,0,0.0,20.5473594666,"$GPGGA,185626.20,4029.0736756,N,10650.4478163,W,4,27,1.1,2070.881,M,-12.177,M,2.2,0000*47"
133,0,0.0,21.5822696686,"$GPGGA,185627.20,4029.0735030,N,10650.4481514,W,4,28,1.0,2070.922,M,-12.177,M,1.2,0000*45"
139,0,0.0,22.5243358612,"$GPGGA,185628.20,4029.0733132,N,10650.4484988,W,4,27,1.1,2070.925,M,-12.177,M,2.2,0000*49"
147,0,0.0,23.587020874,"$GPGGA,185629.20,4029.0731181,N,10650.4489943,W,4,27,1.1,2070.963,M,-12.177,M,1.2,0000*49"
155,0,0.0,24.6095123291,"$GPGGA,185630.20,4029.0729371,N,10650.4494707,W,4,28,1.0,2071.015,M,-12.177,M,2.2,0000*43"
161,0,0.0,25.5491905212,"$GPGGA,185631.20,4029.0727434,N,10650.4498171,W,4,28,1.0,2071.098,M,-12.177,M,1.2,0000*47"
170,0,0.0,26.590555191,"$GPGGA,185632.20,4029.0725691,N,10650.4503092,W,4,28,1.0,2071.192,M,-12.177,M,2.2,0000*4C"
177,0,0.0,27.5559444427,"$GPGGA,185633.20,4029.0723918,N,10650.4507355,W,4,28,1.0,2071.330,M,-12.177,M,3.2,0000*42"
186,0,0.0,28.5767765045,"$GPGGA,185634.20,4029.0721619,N,10650.4513103,W,4,28,1.0,2071.451,M,-12.177,M,4.2,0000*4A"
193,0,0.0,29.6106033325,"$GPGGA,185635.20,4029.0719304,N,10650.4517718,W,4,28,0.8,2071.537,M,-12.177,M,1.2,0000*4C"
202,0,0.0,30.533952713,"$GPGGA,185636.20,4029.0716791,N,10650.4523526,W,4,28,0.8,2071.618,M,-12.177,M,2.2,0000*4D"
209,0,0.0,31.554391861,"$GPGGA,185637.20,4029.0714615,N,10650.4527437,W,4,28,0.8,2071.642,M,-12.177,M,3.2,0000*48"
214,0,0.0,32.6074485779,"$GPGGA,185638.20,4029.0713492,N,10650.4530278,W,4,28,0.8,2071.736,M,-12.177,M,4.2,0000*43"
222,0,0.0,33.5255203247,"$GPGGA,185639.20,4029.0711611,N,10650.4534208,W,4,28,0.8,2071.821,M,-12.177,M,5.2,0000*42"
228,0,0.0,34.5670127869,"$GPGGA,185640.20,4029.0709780,N,10650.4538699,W,4,28,0.8,2071.925,M,-12.177,M,6.2,0000*4A"
236,0,0.0,35.5281028748,"$GPGGA,185641.20,4029.0707871,N,10650.4543115,W,4,28,0.8,2072.014,M,-12.177,M,1.2,0000*44"
244,0,0.0,36.5633735657,"$GPGGA,185642.20,4029.0706221,N,10650.4548234,W,4,28,0.8,2072.182,M,-12.177,M,2.2,0000*4F"
251,0,0.0,37.5918884277,"$GPGGA,185643.20,4029.0704360,N,10650.4552349,W,4,26,1.0,2072.361,M,-12.177,M,1.2,0000*43"
254,0,0.0,38.5976486206,"$GPGGA,185644.20,4029.0703757,N,10650.4554758,W,4,26,1.0,2072.442,M,-12.177,M,2.2,0000*44"
257,0,0.0,39.6062164307,"$GPGGA,185645.20,4029.0703001,N,10650.4556158,W,4,26,1.0,2072.519,M,-12.177,M,1.2,0000*49"
258,0,0.0,40.4994888306,"$GPGGA,185646.20,4029.0702382,N,10650.4557361,W,4,26,1.0,2072.529,M,-12.177,M,2.2,0000*4A"
