;GPS@@@
;Ver=1.1.0
;DIP=2009-00152-00
;Date=2024-May-21 20:41:58
;Offset_m=0.00,0.00,0.00
;Latency_s=0.00
;---------------------------------------------------------------------------------------------------------------------------------------------
traces,odo_tick,pos(m),time_elapsed(s),GPS
3,0,0.0,1.64032101631,"$GPGGA,192423.20,4029.0858170,N,10650.4484709,W,4,24,1.0,2070.090,M,-12.177,M,1.2,0000*43"
12,0,0.0,2.56955099106,"$GPGGA,192424.20,4029.0855503,N,10650.4489958,W,4,24,1.0,2070.147,M,-12.177,M,2.2,0000*46"
21,0,0.0,3.59149003029,"$GPGGA,192425.20,4029.0853323,N,10650.4494533,W,4,24,1.0,2070.195,M,-12.177,M,1.2,0000*44"
29,0,0.0,4.54503107071,"$GPGGA,192426.20,4029.0850776,N,10650.4500171,W,4,25,0.9,2070.230,M,-12.177,M,2.2,0000*48"
38,0,0.0,5.58675098419,"$GPGGA,192427.20,4029.0848651,N,10650.4504818,W,4,26,0.9,2070.287,M,-12.177,M,1.2,0000*4A"
45,0,0.0,6.51158285141,"$GPGGA,192428.20,4029.0846410,N,10650.4510050,W,4,25,1.0,2070.341,M,-12.177,M,2.2,0000*4E"
53,0,0.0,7.52764320374,"$GPGGA,192429.20,4029.0844448,N,10650.4514241,W,4,26,1.0,2070.406,M,-12.177,M,1.2,0000*42"
60,0,0.0,8.5596704483,"$GPGGA,192430.20,4029.0842594,N,10650.4518188,W,4,26,1.0,2070.460,M,-12.177,M,2.2,0000*45"
67,0,0.0,9.52187347412,"$GPGGA,192431.20,4029.0840903,N,10650.4521847,W,4,27,0.9,2070.582,M,-12.177,M,1.2,0000*43"
74,0,0.0,10.5470438004,"$GPGGA,192432.20,4029.0838954,N,10650.4526730,W,4,27,0.9,2070.677,M,-12.177,M,2.2,0000*4F"
81,0,0.0,11.579706192,"$GPGGA,192433.20,4029.0837324,N,10650.4530570,W,4,26,0.9,2070.794,M,-12.177,M,1.2,0000*43"
87,0,0.0,12.6140527725,"$GPGGA,192434.20,4029.0835521,N,10650.4535536,W,4,26,0.9,2070.891,M,-12.177,M,2.2,0000*4B"
94,0,0.0,13.5496082306,"$GPGGA,192435.20,4029.0833913,N,10650.4539095,W,4,26,0.9,2070.968,M,-12.177,M,1.2,0000*45"
101,0,0.0,14.6083650589,"$GPGGA,192436.20,4029.0831707,N,10650.4543093,W,4,26,0.9,2071.071,M,-12.177,M,2.2,0000*47"
111,0,0.0,15.5302991867,"$GPGGA,192437.20,4029.0828872,N,10650.4548742,W,4,26,0.9,2071.162,M,-12.177,M,1.2,0000*43"
119,0,0.0,16.5608043671,"$GPGGA,192438.20,4029.0826370,N,10650.4553207,W,4,26,0.9,2071.253,M,-12.177,M,2.2,0000*47"
127,0,0.0,17.5762634277,"$GPGGA,192439.20,4029.0824185,N,10650.4557731,W,4,25,1.0,2071.372,M,-12.177,M,1.2,0000*42"
135,0,0.0,18.5411891937,"$GPGGA,192440.20,4029.0821801,N,10650.4562413,W,4,26,0.9,2071.479,M,-12.177,M,2.2,0000*4D"
141,0,0.0,19.5709037781,"$GPGGA,192441.20,4029.0820021,N,10650.4566170,W,4,26,0.9,2071.564,M,-12.177,M,1.2,0000*4D"
149,0,0.0,20.6053104401,"$GPGGA,192442.20,4029.0817961,N,10650.4570384,W,4,26,0.9,2071.645,M,-12.177,M,2.2,0000*4A"
157,0,0.0,21.5255203247,"$GPGGA,192443.20,4029.0815230,N,10650.4574507,W,4,26,0.9,2071.782,M,-12.177,M,1.2,0000*46"
163,0,0.0,22.5502719879,"$GPGGA,192444.20,4029.0813248,N,10650.4578180,W,4,26,0.9,2071.871,M,-12.177,M,2.2,0000*4F"
171,0,0.0,23.6134853363,"$GPGGA,192445.20,4029.0811185,N,10650.4582086,W,4,26,0.9,2072.019,M,-12.177,M,1.2,0000*4A"
176,0,0.0,24.602897644,"$GPGGA,192446.20,4029.0809616,N,10650.4585181,W,4,26,0.9,2072.103,M,-12.177,M,2.2,0000*45"
184,0,0.0,25.5521621704,"$GPGGA,192447.20,4029.0807088,N,10650.4589573,W,4,26,0.9,2072.241,M,-12.177,M,1.2,0000*48"
190,0,0.0,26.5816669464,"$GPGGA,192448.20,4029.0805167,N,10650.4592906,W,4,26,0.9,2072.374,M,-12.177,M,2.2,0000*45"
196,0,0.0,27.5995330811,"$GPGGA,192449.20,4029.0803706,N,10650.4596116,W,4,26,0.9,2072.470,M,-12.177,M,3.2,0000*4C"
203,0,0.0,28.5237083435,"$GPGGA,192450.20,4029.0801998,N,10650.4599406,W,4,26,0.9,2072.626,M,-12.177,M,4.2,0000*42"
207,0,0.0,29.5558166504,"$GPGGA,192451.20,4029.0800516,N,10650.4601420,W,4,26,0.9,2072.699,M,-12.177,M,1.2,0000*4F"
213,0,0.0,30.5721244812,"$GPGGA,192452.20,4029.0798430,N,10650.4604738,W,4,26,0.9,2072.820,M,-12.177,M,2.2,0000*47"
217,0,0.0,31.5008392334,"$GPGGA,192453.20,4029.0796547,N,10650.4607222,W,4,26,0.9,2072.982,M,-12.177,M,1.2,0000*4E"
222,0,0.0,32.5354766846,"$GPGGA,192454.20,4029.0795047,N,10650.4609796,W,4,26,0.8,2073.085,M,-12.177,M,2.2,0000*46"
227,0,0.0,33.5518531799,"$GPGGA,192455.20,4029.0793384,N,10650.4612248,W,4,26,0.8,2073.191,M,-12.177,M,1.2,0000*46"
232,0,0.0,34.5820846558,"$GPGGA,192456.20,4029.0791867,N,10650.4614932,W,4,26,0.8,2073.328,M,-12.177,M,2.2,0000*42"
236,0,0.0,35.6043968201,"$GPGGA,192457.20,4029.0790761,N,10650.4616993,W,4,26,0.8,2073.421,M,-12.177,M,3.2,0000*4D"
240,0,0.0,36.5213165283,"$GPGGA,192458.20,4029.0789428,N,10650.4619310,W,4,26,0.8,2073.527,M,-12.177,M,2.2,0000*4C"
244,0,0.0,37.5307922363,"$GPGGA,192459.20,4029.0788454,N,10650.4621482,W,4,26,0.8,2073.635,M,-12.177,M,3.2,0000*41"
247,0,0.0,39.8988876343,"$GPGGA,192500.20,4029.0787276,N,10650.4623834,W,4,26,0.8,2073.720,M,-12.177,M,4.2,0000*44"
247,0,0.0,39.899143219,"$GPGGA,192501.20,4029.0787229,N,10650.4623945,W,4,26,0.8,2073.714,M,-12.177,M,1.2,0000*4A"
247,0,0.0,39.8993492126,"$GPGGA,192502.20,4029.0787219,N,10650.4623915,W,4,26,0.8,2073.707,M,-12.177,M,2.2,0000*4E"
