;GPS@@@
;Ver=1.1.0
;DIP=2009-00152-00
;Date=2024-May-21 20:36:36
;Offset_m=0.00,0.00,0.00
;Latency_s=0.00
;---------------------------------------------------------------------------------------------------------------------------------------------
traces,odo_tick,pos(m),time_elapsed(s),GPS
1,0,0.0,1.25830304623,"$GPGGA,191901.20,4029.0767838,N,10650.4600229,W,4,23,1.0,2073.796,M,-12.177,M,1.2,0000*47"
6,0,0.0,2.30007410049,"$GPGGA,191902.20,4029.0769439,N,10650.4597250,W,4,25,0.8,2073.616,M,-12.177,M,2.2,0000*41"
8,0,0.0,3.33473205566,"$GPGGA,191903.20,4029.0770141,N,10650.4596692,W,4,24,1.0,2073.586,M,-12.177,M,1.2,0000*48"
13,0,0.0,4.34659576416,"$GPGGA,191904.20,4029.0771615,N,10650.4594859,W,4,25,0.9,2073.477,M,-12.177,M,2.2,0000*46"
17,0,0.0,5.28659009933,"$GPGGA,191905.20,4029.0773267,N,10650.4592520,W,4,25,0.9,2073.346,M,-12.177,M,1.2,0000*47"
22,0,0.0,6.29930782318,"$GPGGA,191906.20,4029.0774509,N,10650.4590216,W,4,25,0.9,2073.246,M,-12.177,M,2.2,0000*4E"
27,0,0.0,7.3198800087,"$GPGGA,191907.20,4029.0775985,N,10650.4588061,W,4,24,0.9,2073.171,M,-12.177,M,3.2,0000*4A"
34,0,0.0,8.330078125,"$GPGGA,191908.20,4029.0778466,N,10650.4584646,W,4,24,0.9,2072.987,M,-12.177,M,4.2,0000*40"
40,0,0.0,9.28666591644,"$GPGGA,191909.20,4029.0780405,N,10650.4581381,W,4,24,0.9,2072.851,M,-12.177,M,1.2,0000*47"
47,0,0.0,10.2463026047,"$GPGGA,191910.20,4029.0786654,N,10650.4574687,W,1,28,0.5,2072.425,M,-12.177,M,2.2,*4F"
56,0,0.0,11.2643508911,"$GPGGA,191911.20,4029.0788993,N,10650.4573766,W,1,23,1.0,2072.358,M,-12.177,M,1.2,*4C"
64,0,0.0,12.2874641418,"$GPGGA,191912.20,4029.0786846,N,10650.4567245,W,4,24,1.0,2072.229,M,-12.177,M,2.2,0000*4F"
72,0,0.0,13.3048496246,"$GPGGA,191913.20,4029.0788857,N,10650.4562987,W,4,25,0.9,2072.058,M,-12.177,M,1.2,0000*4E"
78,0,0.0,14.3278503418,"$GPGGA,191914.20,4029.0790428,N,10650.4559142,W,4,23,1.0,2071.946,M,-12.177,M,2.2,0000*45"
85,0,0.0,15.2759237289,"$GPGGA,191915.20,4029.0792420,N,10650.4555141,W,4,24,1.0,2071.820,M,-12.177,M,3.2,0000*46"
91,0,0.0,16.3030776978,"$GPGGA,191916.20,4029.0794010,N,10650.4551570,W,4,24,0.9,2071.720,M,-12.177,M,4.2,0000*46"
99,0,0.0,17.3239192963,"$GPGGA,,,,,,,,,,,,,,*56"
108,0,0.0,18.2310237885,"$GPGGA,,,,,,,,,,,,,,*56"
116,0,0.0,19.3546352386,"$GPGGA,,,,,,,,,,,,,,*56"
124,0,0.0,20.2828063965,"$GPGGA,191920.20,4029.0802236,N,10650.4532969,W,4,24,0.8,2071.379,M,-12.177,M,2.2,0000*4B"
129,0,0.0,21.3103313446,"$GPGGA,191921.20,4029.0804047,N,10650.4529445,W,4,25,0.8,2071.336,M,-12.177,M,1.2,0000*48"
136,0,0.0,22.3540248871,"$GPGGA,191922.20,4029.0805583,N,10650.4526523,W,4,25,0.8,2071.315,M,-12.177,M,2.2,0000*4B"
144,0,0.0,23.3148479462,"$GPGGA,191923.20,4029.0808458,N,10650.4521521,W,4,25,0.8,2071.240,M,-12.177,M,3.2,0000*45"
153,0,0.0,24.344373703,"$GPGGA,191924.20,4029.0810983,N,10650.4516587,W,4,26,0.7,2071.165,M,-12.177,M,4.2,0000*47"
162,0,0.0,25.2847499847,"$GPGGA,191925.20,4029.0814125,N,10650.4511010,W,4,24,0.8,2071.010,M,-12.177,M,5.2,0000*45"
172,0,0.0,26.3142318726,"$GPGGA,191926.20,4029.0816842,N,10650.4505736,W,4,25,0.8,2070.843,M,-12.177,M,6.2,0000*47"
181,0,0.0,27.3588294983,"$GPGGA,191927.20,4029.0819721,N,10650.4499492,W,4,24,0.8,2070.647,M,-12.177,M,1.2,0000*46"
188,0,0.0,28.2964172363,"$GPGGA,191928.20,4029.0821310,N,10650.4496008,W,4,24,0.8,2070.573,M,-12.177,M,2.2,0000*4B"
197,0,0.0,29.213640213,"$GPGGA,191929.20,4029.0824083,N,10650.4490324,W,4,25,0.8,2070.427,M,-12.177,M,1.2,0000*4F"
203,0,0.0,30.2370376587,"$GPGGA,191930.20,4029.0826101,N,10650.4486565,W,4,26,0.8,2070.339,M,-12.177,M,2.2,0000*42"
211,0,0.0,31.2936592102,"$GPGGA,191931.20,4029.0828205,N,10650.4482323,W,4,25,0.8,2070.254,M,-12.177,M,3.2,0000*42"
219,0,0.0,32.2010383606,"$GPGGA,191932.20,4029.0830510,N,10650.4478035,W,4,25,0.8,2070.167,M,-12.177,M,4.2,0000*4E"
225,0,0.0,33.2248802185,"$GPGGA,191933.20,4029.0832455,N,10650.4474071,W,4,25,0.8,2070.118,M,-12.177,M,1.2,0000*4C"
231,0,0.0,34.2642402649,"$GPGGA,191934.20,4029.0833826,N,10650.4470836,W,4,25,0.8,2070.069,M,-12.177,M,2.2,0000*49"
237,0,0.0,35.2813911438,"$GPGGA,191935.20,4029.0835550,N,10650.4466977,W,4,25,0.8,2070.018,M,-12.177,M,3.2,0000*46"
243,0,0.0,36.2265357971,"$GPGGA,191936.20,4029.0836773,N,10650.4463775,W,4,25,0.8,2069.992,M,-12.177,M,4.2,0000*48"
250,0,0.0,37.2448768616,"$GPGGA,191937.20,4029.0838685,N,10650.4459595,W,4,25,0.8,2069.957,M,-12.177,M,1.2,0000*46"
258,0,0.0,38.2785186768,"$GPGGA,191938.20,4029.0845075,N,10650.4451913,W,1,26,0.6,2069.277,M,-12.177,M,2.2,*42"
264,0,0.0,40.7990379333,"$GPGGA,191939.20,4029.0858131,N,10650.4473181,W,1,25,1.0,2067.660,M,-12.177,M,1.2,*46"
264,0,0.0,40.7992973328,"$GPGGA,191940.20,4029.0842547,N,10650.4449699,W,4,25,1.0,2069.908,M,-12.177,M,2.2,0000*48"
264,0,0.0,40.7995071411,"$GPGGA,191941.20,4029.0842559,N,10650.4449683,W,4,24,0.8,2069.917,M,-12.177,M,1.2,0000*48"
