;GPS@@@
;Ver=1.1.0
;DIP=2009-00152-00
;Date=2024-May-21 20:43:29
;Offset_m=0.00,0.00,0.00
;Latency_s=0.00
;---------------------------------------------------------------------------------------------------------------------------------------------
traces,odo_tick,pos(m),time_elapsed(s),GPS
3,0,0.0,1.56885695457,"$GPGGA,192554.20,4029.0796905,N,10650.4622379,W,4,25,1.0,2073.312,M,-12.177,M,2.2,0000*40"
11,0,0.0,2.49071097374,"$GPGGA,192555.20,4029.0799730,N,10650.4617654,W,4,25,0.8,2073.099,M,-12.177,M,3.2,0000*42"
18,0,0.0,3.52275800705,"$GPGGA,192556.20,4029.0801883,N,10650.4613800,W,4,26,0.8,2072.956,M,-12.177,M,4.2,0000*4C"
25,0,0.0,4.55464315414,"$GPGGA,192557.20,4029.0803918,N,10650.4609187,W,4,26,0.8,2072.801,M,-12.177,M,1.2,0000*47"
33,0,0.0,5.5803861618,"$GPGGA,192558.20,4029.0805593,N,10650.4604759,W,4,25,1.0,2072.653,M,-12.177,M,2.2,0000*49"
39,0,0.0,6.50251817703,"$GPGGA,192559.20,4029.0806541,N,10650.4600973,W,4,24,1.0,2072.551,M,-12.177,M,1.2,0000*45"
48,0,0.0,7.52077913284,"$GPGGA,192600.20,4029.0808684,N,10650.4595477,W,4,26,0.8,2072.343,M,-12.177,M,2.2,0000*45"
57,0,0.0,8.56572818756,"$GPGGA,192601.20,4029.0810872,N,10650.4590660,W,4,26,0.9,2072.185,M,-12.177,M,1.2,0000*41"
66,0,0.0,9.55813503265,"$GPGGA,192602.20,4029.0813309,N,10650.4585525,W,4,25,0.9,2072.013,M,-12.177,M,2.2,0000*4E"
75,0,0.0,10.6373748779,"$GPGGA,192603.20,4029.0815733,N,10650.4580814,W,4,26,0.9,2071.898,M,-12.177,M,3.2,0000*44"
85,0,0.0,11.5822191238,"$GPGGA,192604.20,4029.0818872,N,10650.4574900,W,4,26,0.9,2071.727,M,-12.177,M,4.2,0000*47"
94,0,0.0,12.5148563385,"$GPGGA,192605.20,4029.0821469,N,10650.4569960,W,4,26,0.9,2071.610,M,-12.177,M,1.2,0000*40"
103,0,0.0,13.5668258667,"$GPGGA,192606.20,4029.0823973,N,10650.4565310,W,4,25,1.0,2071.527,M,-12.177,M,2.2,0000*49"
111,0,0.0,14.4996213913,"$GPGGA,192607.20,4029.0826613,N,10650.4560167,W,4,26,1.0,2071.419,M,-12.177,M,1.2,0000*4F"
122,0,0.0,15.5532989502,"$GPGGA,192608.20,4029.0829664,N,10650.4554216,W,4,26,1.0,2071.260,M,-12.177,M,2.2,0000*46"
132,0,0.0,16.5465507507,"$GPGGA,192609.20,4029.0832488,N,10650.4548894,W,4,26,1.0,2071.178,M,-12.177,M,1.2,0000*49"
142,0,0.0,17.5669727325,"$GPGGA,192610.20,4029.0835685,N,10650.4542808,W,4,27,0.9,2071.006,M,-12.177,M,2.2,0000*44"
152,0,0.0,18.486246109,"$GPGGA,192611.20,4029.0838348,N,10650.4537550,W,4,25,1.1,2070.887,M,-12.177,M,1.2,0000*46"
161,0,0.0,19.5195331573,"$GPGGA,192612.20,4029.0840985,N,10650.4531851,W,4,25,1.1,2070.756,M,-12.177,M,2.2,0000*4B"
170,0,0.0,20.5756797791,"$GPGGA,192613.20,4029.0843618,N,10650.4526637,W,4,25,1.1,2070.643,M,-12.177,M,1.2,0000*4C"
180,0,0.0,21.5140228271,"$GPGGA,192614.20,4029.0846451,N,10650.4520603,W,4,26,1.0,2070.491,M,-12.177,M,2.2,0000*4C"
189,0,0.0,22.5987968445,"$GPGGA,192615.20,4029.0848700,N,10650.4516089,W,4,26,0.8,2070.415,M,-12.177,M,1.2,0000*43"
198,0,0.0,23.5286846161,"$GPGGA,192616.20,4029.0850970,N,10650.4510965,W,4,26,0.8,2070.351,M,-12.177,M,2.2,0000*49"
207,0,0.0,24.5578155518,"$GPGGA,192617.20,4029.0853456,N,10650.4506012,W,4,26,0.8,2070.299,M,-12.177,M,3.2,0000*48"
216,0,0.0,25.5854377747,"$GPGGA,192618.20,4029.0856002,N,10650.4500654,W,4,26,0.8,2070.245,M,-12.177,M,4.2,0000*43"
225,0,0.0,26.5041065216,"$GPGGA,192619.20,4029.0859061,N,10650.4494799,W,4,27,0.8,2070.183,M,-12.177,M,1.2,0000*49"
233,0,0.0,27.5540351868,"$GPGGA,192620.20,4029.0861352,N,10650.4490532,W,4,27,0.8,2070.126,M,-12.177,M,2.2,0000*40"
242,0,0.0,28.4977970123,"$GPGGA,192621.20,4029.0864291,N,10650.4485554,W,4,27,0.8,2070.083,M,-12.177,M,3.2,0000*41"
250,0,0.0,29.5016326904,"$GPGGA,192622.20,4029.0866535,N,10650.4481044,W,4,26,0.8,2070.018,M,-12.177,M,4.2,0000*4D"
256,0,0.0,30.5463790894,"$GPGGA,192623.20,4029.0868298,N,10650.4477982,W,4,26,0.8,2069.970,M,-12.177,M,1.2,0000*42"
261,0,0.0,31.5491504669,"$GPGGA,192624.20,4029.0873983,N,10650.4474169,W,1,27,0.5,2069.641,M,-12.177,M,2.2,*47"
262,0,0.0,31.9409637451,"$GPGGA,192625.20,4029.0875808,N,10650.4472597,W,1,27,0.5,2069.569,M,-12.177,M,3.2,*49"
