;GPS@@@
;Ver=1.1.0
;DIP=2009-00152-00
;Date=2024-May-21 20:44:31
;Offset_m=0.00,0.00,0.00
;Latency_s=0.00
;---------------------------------------------------------------------------------------------------------------------------------------------
traces,odo_tick,pos(m),time_elapsed(s),GPS
1,0,0.0,4.63730096817,"$GPGGA,192656.20,4029.0873350,N,10650.4479191,W,4,26,2.4,2070.015,M,-12.177,M,2.2,0000*44"
1,0,0.0,4.63787603378,"$GPGGA,192657.20,4029.0873345,N,10650.4479172,W,4,26,2.4,2070.018,M,-12.177,M,3.2,0000*40"
2,0,0.0,4.63833522797,"$GPGGA,192658.20,4029.0873320,N,10650.4479155,W,4,26,2.4,2070.010,M,-12.177,M,4.2,0000*46"
2,0,0.0,4.6387629509,"$GPGGA,192659.20,4029.0873166,N,10650.4479318,W,4,26,2.4,2069.996,M,-12.177,M,5.2,0000*42"
7,0,0.0,5.65747594833,"$GPGGA,192700.20,4029.0871223,N,10650.4481610,W,4,26,2.4,2070.043,M,-12.177,M,6.2,0000*4F"
14,0,0.0,6.68913316727,"$GPGGA,192701.20,4029.0868484,N,10650.4485366,W,4,25,2.4,2070.058,M,-12.177,M,7.2,0000*45"
23,0,0.0,7.72522306442,"$GPGGA,192702.20,4029.0865461,N,10650.4489998,W,4,25,2.4,2070.122,M,-12.177,M,8.2,0000*44"
31,0,0.0,8.69386291504,"$GPGGA,192703.20,4029.0863399,N,10650.4494126,W,4,23,1.5,2070.144,M,-12.177,M,1.2,0000*4F"
40,0,0.0,9.73358917236,"$GPGGA,192704.20,4029.0860486,N,10650.4499479,W,4,24,1.6,2070.231,M,-12.177,M,2.2,0000*46"
51,0,0.0,10.7613544464,"$GPGGA,192705.20,4029.0857277,N,10650.4505580,W,4,24,1.0,2070.305,M,-12.177,M,1.2,0000*4B"
61,0,0.0,11.6970062256,"$GPGGA,192706.20,4029.0854375,N,10650.4511183,W,4,24,1.0,2070.376,M,-12.177,M,2.2,0000*4D"
71,0,0.0,12.7165288925,"$GPGGA,192707.20,4029.0851694,N,10650.4517100,W,4,25,0.9,2070.425,M,-12.177,M,3.2,0000*47"
80,0,0.0,13.7453107834,"$GPGGA,192708.20,4029.0849338,N,10650.4522599,W,4,25,0.9,2070.518,M,-12.177,M,4.2,0000*48"
89,0,0.0,14.7722635269,"$GPGGA,192709.20,4029.0847178,N,10650.4527593,W,4,24,1.0,2070.622,M,-12.177,M,1.2,0000*48"
98,0,0.0,15.6926679611,"$GPGGA,192710.20,4029.0844670,N,10650.4533207,W,4,24,1.0,2070.727,M,-12.177,M,2.2,0000*44"
107,0,0.0,16.7469577789,"$GPGGA,192711.20,4029.0842281,N,10650.4538242,W,4,26,0.8,2070.834,M,-12.177,M,1.2,0000*46"
117,0,0.0,17.7141704559,"$GPGGA,192712.20,4029.0839625,N,10650.4543667,W,4,25,0.8,2070.966,M,-12.177,M,2.2,0000*4A"
127,0,0.0,18.7825164795,"$GPGGA,192713.20,4029.0836498,N,10650.4549844,W,4,26,0.8,2071.098,M,-12.177,M,1.2,0000*4C"
137,0,0.0,19.7442989349,"$GPGGA,192714.20,4029.0833552,N,10650.4555587,W,4,26,0.8,2071.244,M,-12.177,M,2.2,0000*46"
147,0,0.0,20.7732028961,"$GPGGA,192715.20,4029.0830431,N,10650.4561251,W,4,26,0.8,2071.343,M,-12.177,M,3.2,0000*4C"
156,0,0.0,21.6802768707,"$GPGGA,192716.20,4029.0827668,N,10650.4566830,W,4,26,0.8,2071.453,M,-12.177,M,4.2,0000*4C"
164,0,0.0,22.7249660492,"$GPGGA,192717.20,4029.0825535,N,10650.4571287,W,4,25,0.9,2071.551,M,-12.177,M,5.2,0000*44"
171,0,0.0,23.6789073944,"$GPGGA,192718.20,4029.0823207,N,10650.4575649,W,4,26,0.8,2071.612,M,-12.177,M,6.2,0000*4C"
179,0,0.0,24.7273426056,"$GPGGA,192719.20,4029.0821309,N,10650.4580229,W,4,26,0.8,2071.732,M,-12.177,M,1.2,0000*4C"
186,0,0.0,25.7539482117,"$GPGGA,192720.20,4029.0819507,N,10650.4584211,W,4,26,0.8,2071.840,M,-12.177,M,2.2,0000*43"
193,0,0.0,26.698802948,"$GPGGA,192721.20,4029.0817085,N,10650.4588346,W,4,26,0.8,2071.970,M,-12.177,M,1.2,0000*4D"
201,0,0.0,27.7357711792,"$GPGGA,192722.20,4029.0814941,N,10650.4592251,W,4,25,0.9,2072.135,M,-12.177,M,2.2,0000*4B"
206,0,0.0,28.7581596375,"$GPGGA,192723.20,4029.0813294,N,10650.4595866,W,4,25,0.9,2072.254,M,-12.177,M,3.2,0000*42"
214,0,0.0,29.7334251404,"$GPGGA,192724.20,4029.0811473,N,10650.4599838,W,4,26,0.8,2072.396,M,-12.177,M,4.2,0000*45"
221,0,0.0,30.6748256683,"$GPGGA,192725.20,4029.0809631,N,10650.4604667,W,4,26,0.8,2072.574,M,-12.177,M,1.2,0000*45"
229,0,0.0,31.7086315155,"$GPGGA,192726.20,4029.0807995,N,10650.4608560,W,4,26,0.8,2072.722,M,-12.177,M,2.2,0000*43"
236,0,0.0,32.7497940063,"$GPGGA,192727.20,4029.0806223,N,10650.4613448,W,4,24,0.8,2072.832,M,-12.177,M,1.2,0000*4B"
244,0,0.0,33.7608642578,"$GPGGA,192728.20,4029.0803906,N,10650.4617921,W,4,25,0.8,2072.976,M,-12.177,M,2.2,0000*48"
249,0,0.0,34.6939353943,"$GPGGA,192729.20,4029.0802728,N,10650.4621067,W,4,25,0.8,2073.101,M,-12.177,M,1.2,0000*4E"
255,0,0.0,35.7420310974,"$GPGGA,192730.20,4029.0801275,N,10650.4624320,W,4,24,0.8,2073.195,M,-12.177,M,2.2,0000*42"
259,0,0.0,36.7808380127,"$GPGGA,192731.20,4029.0799798,N,10650.4627828,W,4,24,0.7,2073.275,M,-12.177,M,1.2,0000*4A"
264,0,0.0,37.718170166,"$GPGGA,192732.20,4029.0798636,N,10650.4630949,W,4,23,0.9,2073.359,M,-12.177,M,2.2,0000*48"
267,0,0.0,39.4685707092,"$GPGGA,192733.20,4029.0797125,N,10650.4633316,W,4,24,0.7,2073.402,M,-12.177,M,1.2,0000*43"
267,0,0.0,39.4688301086,"$GPGGA,192734.20,4029.0797132,N,10650.4633344,W,4,24,0.7,2073.392,M,-12.177,M,2.2,0000*48"
