;GPS@@@
;Ver=1.1.0
;DIP=2009-00152-00
;Date=2024-May-21 20:37:42
;Offset_m=0.00,0.00,0.00
;Latency_s=0.00
;---------------------------------------------------------------------------------------------------------------------------------------------
traces,odo_tick,pos(m),time_elapsed(s),GPS
1,0,0.0,1.21981096268,"$GPGGA,192007.20,4029.0843043,N,10650.4461890,W,4,26,0.7,2069.925,M,-12.177,M,1.2,0000*45"
8,0,0.0,2.27136492729,"$GPGGA,192008.20,4029.0840687,N,10650.4466867,W,4,25,0.8,2069.954,M,-12.177,M,2.2,0000*41"
17,0,0.0,3.21995210648,"$GPGGA,192009.20,4029.0838086,N,10650.4471777,W,4,26,0.8,2070.021,M,-12.177,M,1.2,0000*43"
26,0,0.0,4.27441215515,"$GPGGA,192010.20,4029.0835511,N,10650.4476746,W,4,26,0.8,2070.111,M,-12.177,M,2.2,0000*49"
35,0,0.0,5.28666210175,"$GPGGA,192011.20,4029.0832842,N,10650.4482094,W,4,26,0.8,2070.171,M,-12.177,M,1.2,0000*42"
41,0,0.0,6.20288419724,"$GPGGA,192012.20,4029.0831108,N,10650.4485715,W,4,26,0.8,2070.218,M,-12.177,M,2.2,0000*43"
50,0,0.0,7.23294210434,"$GPGGA,192013.20,4029.0829048,N,10650.4490702,W,4,27,0.8,2070.330,M,-12.177,M,3.2,0000*47"
58,0,0.0,8.2465801239,"$GPGGA,192014.20,4029.0827167,N,10650.4495656,W,4,26,0.8,2070.421,M,-12.177,M,4.2,0000*46"
65,0,0.0,9.28153800964,"$GPGGA,192015.20,4029.0825231,N,10650.4499933,W,4,27,0.8,2070.510,M,-12.177,M,5.2,0000*46"
69,0,0.0,10.2327823639,"$GPGGA,192016.20,4029.0824246,N,10650.4502376,W,4,27,0.8,2070.602,M,-12.177,M,6.2,0000*4F"
76,0,0.0,11.2795219421,"$GPGGA,192017.20,4029.0822723,N,10650.4506173,W,4,26,0.8,2070.734,M,-12.177,M,7.2,0000*49"
85,0,0.0,12.1941957474,"$GPGGA,192018.20,4029.0820344,N,10650.4511541,W,4,27,0.8,2070.887,M,-12.177,M,2.2,0000*41"
93,0,0.0,13.2423944473,"$GPGGA,192019.20,4029.0818171,N,10650.4517121,W,4,27,0.8,2071.033,M,-12.177,M,1.2,0000*4E"
103,0,0.0,14.2556314468,"$GPGGA,192020.20,4029.0815073,N,10650.4522670,W,4,27,0.8,2071.139,M,-12.177,M,2.2,0000*47"
112,0,0.0,15.1890087128,"$GPGGA,192021.20,4029.0812283,N,10650.4527531,W,4,27,0.8,2071.247,M,-12.177,M,1.2,0000*46"
120,0,0.0,16.2435321808,"$GPGGA,192022.20,4029.0808949,N,10650.4532462,W,4,27,0.8,2071.339,M,-12.177,M,2.2,0000*4B"
129,0,0.0,17.2646656036,"$GPGGA,192023.20,4029.0806128,N,10650.4536702,W,4,27,0.9,2071.404,M,-12.177,M,1.2,0000*41"
137,0,0.0,18.2241477966,"$GPGGA,192024.20,4029.0803133,N,10650.4541328,W,4,27,0.9,2071.445,M,-12.177,M,2.2,0000*43"
145,0,0.0,19.1907920837,"$GPGGA,192025.20,4029.0800999,N,10650.4545504,W,4,27,0.9,2071.536,M,-12.177,M,1.2,0000*43"
153,0,0.0,20.2340431213,"$GPGGA,192026.20,4029.0798275,N,10650.4549532,W,4,27,0.9,2071.609,M,-12.177,M,2.2,0000*42"
160,0,0.0,21.2823982239,"$GPGGA,192027.20,4029.0796179,N,10650.4553877,W,4,27,0.9,2071.725,M,-12.177,M,3.2,0000*4B"
166,0,0.0,22.288646698,"$GPGGA,192028.20,4029.0794685,N,10650.4557704,W,4,26,0.9,2071.809,M,-12.177,M,2.2,0000*4C"
170,0,0.0,23.3087100983,"$GPGGA,192029.20,4029.0793642,N,10650.4559999,W,4,26,0.9,2071.876,M,-12.177,M,1.2,0000*4E"
177,0,0.0,24.2465839386,"$GPGGA,192030.20,4029.0792236,N,10650.4563796,W,4,26,0.9,2071.974,M,-12.177,M,2.2,0000*48"
182,0,0.0,25.1870937347,"$GPGGA,192031.20,4029.0790442,N,10650.4566681,W,4,27,0.9,2072.071,M,-12.177,M,1.2,0000*41"
188,0,0.0,26.2459869385,"$GPGGA,192032.20,4029.0789024,N,10650.4569600,W,4,27,0.9,2072.174,M,-12.177,M,2.2,0000*4F"
196,0,0.0,27.2612476349,"$GPGGA,192033.20,4029.0787295,N,10650.4574490,W,4,26,0.8,2072.346,M,-12.177,M,1.2,0000*4F"
203,0,0.0,28.2732143402,"$GPGGA,192034.20,4029.0785478,N,10650.4578081,W,4,27,0.8,2072.508,M,-12.177,M,2.2,0000*49"
207,0,0.0,29.2968883514,"$GPGGA,192035.20,4029.0783938,N,10650.4581509,W,4,27,0.8,2072.662,M,-12.177,M,1.2,0000*48"
212,0,0.0,30.2303962708,"$GPGGA,192036.20,4029.0782253,N,10650.4584794,W,4,27,0.8,2072.798,M,-12.177,M,2.2,0000*48"
219,0,0.0,31.2732276917,"$GPGGA,192037.20,4029.0780564,N,10650.4588509,W,4,26,0.8,2072.961,M,-12.177,M,3.2,0000*4A"
225,0,0.0,32.198764801,"$GPGGA,192038.20,4029.0778722,N,10650.4591733,W,4,26,0.8,2073.094,M,-12.177,M,4.2,0000*44"
232,0,0.0,33.2067565918,"$GPGGA,192039.20,4029.0776293,N,10650.4595919,W,4,26,0.8,2073.306,M,-12.177,M,5.2,0000*4F"
237,0,0.0,34.2567520142,"$GPGGA,192040.20,4029.0775112,N,10650.4598509,W,4,27,0.8,2073.387,M,-12.177,M,6.2,0000*43"
241,0,0.0,35.2911872864,"$GPGGA,192041.20,4029.0773982,N,10650.4600662,W,4,27,0.8,2073.507,M,-12.177,M,1.2,0000*40"
245,0,0.0,36.2019844055,"$GPGGA,192042.20,4029.0772888,N,10650.4603101,W,4,27,0.8,2073.651,M,-12.177,M,2.2,0000*4B"
252,0,0.0,37.2418251038,"$GPGGA,192043.20,4029.0771353,N,10650.4607070,W,4,27,0.8,2073.799,M,-12.177,M,3.2,0000*43"
255,0,0.0,38.6596755981,"$GPGGA,192044.20,4029.0773666,N,10650.4608176,W,1,27,0.5,2075.503,M,-12.177,M,4.2,*45"
255,0,0.0,38.6599349976,"$GPGGA,192045.20,4029.0775906,N,10650.4607356,W,1,25,0.6,2075.410,M,-12.177,M,1.2,*43"
