;GPS@@@
;Ver=1.1.0
;DIP=2009-00152-00
;Date=2024-May-21 22:14:22
;Offset_m=0.00,0.00,0.00
;Latency_s=0.00
;---------------------------------------------------------------------------------------------------------------------------------------------
traces,odo_tick,pos(m),time_elapsed(s),GPS
1,0,0.0,2.97314190865,"$GPGGA,205648.20,4029.0814258,N,10650.4638294,W,4,25,1.0,2072.950,M,-12.177,M,2.2,0000*41"
2,0,0.0,2.97366309166,"$GPGGA,205649.20,4029.0814154,N,10650.4638095,W,4,24,0.8,2072.980,M,-12.177,M,1.2,0000*4A"
3,0,0.0,3.93009495735,"$GPGGA,205650.20,4029.0813581,N,10650.4637941,W,4,23,0.8,2073.003,M,-12.177,M,2.2,0000*41"
13,0,0.0,4.96576499939,"$GPGGA,205651.20,4029.0809292,N,10650.4635684,W,4,24,0.8,2073.152,M,-12.177,M,1.2,0000*4B"
24,0,0.0,5.89431619644,"$GPGGA,205652.20,4029.0803430,N,10650.4632718,W,4,24,0.8,2073.280,M,-12.177,M,2.2,0000*40"
32,0,0.0,6.95027208328,"$GPGGA,205653.20,4029.0798456,N,10650.4630896,W,4,25,0.8,2073.363,M,-12.177,M,1.2,0000*49"
42,0,0.0,7.87157487869,"$GPGGA,205654.20,4029.0794788,N,10650.4629326,W,4,25,0.8,2073.506,M,-12.177,M,2.2,0000*4C"
50,0,0.0,8.92007541656,"$GPGGA,205655.20,4029.0790658,N,10650.4627165,W,4,26,0.8,2073.654,M,-12.177,M,3.2,0000*48"
59,0,0.0,9.87495803833,"$GPGGA,205656.20,4029.0786189,N,10650.4623385,W,4,26,0.8,2073.838,M,-12.177,M,4.2,0000*4C"
66,0,0.0,10.9295864105,"$GPGGA,205657.20,4029.0782753,N,10650.4620521,W,4,26,0.8,2073.868,M,-12.177,M,5.2,0000*47"
75,0,0.0,11.860865593,"$GPGGA,205658.20,4029.0778656,N,10650.4617029,W,4,24,0.9,2073.894,M,-12.177,M,6.2,0000*43"
82,0,0.0,12.8899898529,"$GPGGA,205659.20,4029.0775187,N,10650.4614468,W,4,25,0.9,2073.910,M,-12.177,M,1.2,0000*4D"
92,0,0.0,13.9115495682,"$GPGGA,205700.20,4029.0770924,N,10650.4611327,W,4,25,0.9,2074.012,M,-12.177,M,2.2,0000*42"
101,0,0.0,14.870347023,"$GPGGA,205701.20,4029.0766532,N,10650.4607967,W,4,26,0.8,2074.094,M,-12.177,M,1.2,0000*49"
109,0,0.0,15.9147319794,"$GPGGA,205702.20,4029.0762500,N,10650.4604118,W,4,26,0.8,2074.169,M,-12.177,M,2.2,0000*4C"
116,0,0.0,16.9395008087,"$GPGGA,205703.20,4029.0759636,N,10650.4601859,W,4,27,0.8,2074.214,M,-12.177,M,3.2,0000*43"
123,0,0.0,17.8930702209,"$GPGGA,205704.20,4029.0756742,N,10650.4599390,W,4,26,0.8,2074.340,M,-12.177,M,4.2,0000*43"
132,0,0.0,18.9245052338,"$GPGGA,205705.20,4029.0752583,N,10650.4595732,W,4,27,0.8,2074.418,M,-12.177,M,1.2,0000*47"
140,0,0.0,19.8555641174,"$GPGGA,205706.20,4029.0748118,N,10650.4592313,W,4,28,0.8,2074.429,M,-12.177,M,2.2,0000*47"
149,0,0.0,20.8959407806,"$GPGGA,205707.20,4029.0743700,N,10650.4588979,W,4,27,0.8,2074.335,M,-12.177,M,3.2,0000*4B"
160,0,0.0,21.8495788574,"$GPGGA,205708.20,4029.0738599,N,10650.4584913,W,4,27,0.8,2074.174,M,-12.177,M,4.2,0000*4A"
170,0,0.0,22.8659973145,"$GPGGA,205709.20,4029.0734016,N,10650.4580864,W,4,27,0.9,2073.936,M,-12.177,M,5.2,0000*49"
181,0,0.0,23.8830070496,"$GPGGA,205710.20,4029.0729267,N,10650.4576608,W,4,27,0.8,2073.656,M,-12.177,M,6.2,0000*4F"
182,0,0.0,25.9171962738,"$GPGGA,205711.20,4029.0728086,N,10650.4575573,W,4,27,0.8,2073.576,M,-12.177,M,7.2,0000*4E"
183,0,0.0,25.9177532196,"$GPGGA,205712.20,4029.0727899,N,10650.4575402,W,4,27,0.8,2073.558,M,-12.177,M,8.2,0000*40"
193,0,0.0,26.8590755463,"$GPGGA,205713.20,4029.0724379,N,10650.4572390,W,4,26,0.8,2073.345,M,-12.177,M,9.2,0000*46"
202,0,0.0,27.8796806335,"$GPGGA,205714.20,4029.0720108,N,10650.4569598,W,1,25,0.6,2070.553,M,-12.177,M,0.0,*44"
211,0,0.0,28.9157924652,"$GPGGA,205715.20,4029.0716309,N,10650.4564899,W,1,26,0.5,2070.333,M,-12.177,M,0.0,*42"
220,0,0.0,29.9432868958,"$GPGGA,205716.20,4029.0714442,N,10650.4562202,W,1,26,0.5,2070.373,M,-12.177,M,0.0,*41"
227,0,0.0,30.8610267639,"$GPGGA,205717.20,4029.0711492,N,10650.4558232,W,1,27,0.5,2070.334,M,-12.177,M,0.0,*40"
233,0,0.0,31.8789691925,"$GPGGA,205718.20,4029.0708227,N,10650.4555292,W,1,24,0.6,2070.324,M,-12.177,M,0.0,*49"
238,0,0.0,32.9027671814,"$GPGGA,205719.20,4029.0705787,N,10650.4561542,W,1,23,4.1,2069.259,M,-12.177,M,1.2,*43"
241,0,0.0,33.9208641052,"$GPGGA,205720.20,4029.0702489,N,10650.4552757,W,4,26,4.1,2072.445,M,-12.177,M,2.2,0000*47"
249,0,0.0,34.8442306519,"$GPGGA,205721.20,4029.0699024,N,10650.4550452,W,4,25,2.0,2072.252,M,-12.177,M,1.2,0000*45"
256,0,0.0,35.8810462952,"$GPGGA,205722.20,4029.0695207,N,10650.4547466,W,4,25,2.0,2072.167,M,-12.177,M,2.2,0000*4E"
264,0,0.0,36.9366226196,"$GPGGA,205723.20,4029.0691892,N,10650.4545020,W,4,24,0.9,2072.037,M,-12.177,M,1.2,0000*44"
265,0,0.0,37.4503326416,"$GPGGA,205724.20,4029.0690825,N,10650.4543981,W,4,25,0.9,2071.971,M,-12.177,M,2.2,0000*40"
