;GPS@@@
;Ver=1.1.0
;DIP=2009-00152-00
;Date=2024-May-21 22:09:47
;Offset_m=0.00,0.00,0.00
;Latency_s=0.00
;---------------------------------------------------------------------------------------------------------------------------------------------
traces,odo_tick,pos(m),time_elapsed(s),GPS
1,0,0.0,10.9002714157,"$GPGGA,205213.20,4029.0829207,N,10650.4595144,W,4,28,0.8,2071.802,M,-12.177,M,1.2,0000*47"
1,0,0.0,10.9007749557,"$GPGGA,205214.20,4029.0829215,N,10650.4595153,W,4,28,0.8,2071.800,M,-12.177,M,2.2,0000*44"
1,0,0.0,10.9011888504,"$GPGGA,205215.20,4029.0829217,N,10650.4595142,W,4,26,0.8,2071.802,M,-12.177,M,1.2,0000*48"
1,0,0.0,10.9015922546,"$GPGGA,205216.20,4029.0829248,N,10650.4595210,W,4,28,0.8,2071.792,M,-12.177,M,2.2,0000*4E"
1,0,0.0,10.9019947052,"$GPGGA,205217.20,4029.0829244,N,10650.4595194,W,4,28,0.8,2071.796,M,-12.177,M,1.2,0000*4B"
2,0,0.0,10.9023923874,"$GPGGA,205218.20,4029.0829266,N,10650.4595188,W,4,28,0.8,2071.791,M,-12.177,M,2.2,0000*4D"
2,0,0.0,10.9027910233,"$GPGGA,205219.20,4029.0829229,N,10650.4595169,W,4,28,0.8,2071.801,M,-12.177,M,1.2,0000*4D"
2,0,0.0,10.9031915665,"$GPGGA,205220.20,4029.0829240,N,10650.4595196,W,4,29,0.7,2071.792,M,-12.177,M,2.2,0000*40"
2,0,0.0,10.903591156,"$GPGGA,205221.20,4029.0829237,N,10650.4595173,W,4,29,0.7,2071.792,M,-12.177,M,1.2,0000*49"
3,0,0.0,10.9039850235,"$GPGGA,205222.20,4029.0829052,N,10650.4594987,W,4,29,0.7,2071.789,M,-12.177,M,2.2,0000*40"
10,0,0.0,11.950050354,"$GPGGA,205223.20,4029.0825778,N,10650.4591415,W,4,28,0.7,2071.824,M,-12.177,M,1.2,0000*4B"
19,0,0.0,12.8769216537,"$GPGGA,205224.20,4029.0822452,N,10650.4587671,W,4,30,0.7,2071.848,M,-12.177,M,2.2,0000*47"
28,0,0.0,13.9141902924,"$GPGGA,205225.20,4029.0817997,N,10650.4583663,W,4,28,0.8,2071.918,M,-12.177,M,1.2,0000*42"
38,0,0.0,14.9323768616,"$GPGGA,205226.20,4029.0813595,N,10650.4580074,W,4,28,0.8,2071.978,M,-12.177,M,2.2,0000*4D"
46,0,0.0,15.9808168411,"$GPGGA,205227.20,4029.0810014,N,10650.4576455,W,4,28,0.8,2071.983,M,-12.177,M,1.2,0000*4A"
53,0,0.0,16.9035663605,"$GPGGA,205228.20,4029.0807176,N,10650.4572905,W,4,29,0.8,2071.950,M,-12.177,M,2.2,0000*46"
62,0,0.0,17.9506778717,"$GPGGA,205229.20,4029.0803090,N,10650.4568908,W,4,28,0.8,2071.909,M,-12.177,M,3.2,0000*40"
71,0,0.0,18.9884300232,"$GPGGA,205230.20,4029.0799042,N,10650.4565267,W,4,28,0.8,2071.889,M,-12.177,M,4.2,0000*4A"
81,0,0.0,19.9953231812,"$GPGGA,205231.20,4029.0794523,N,10650.4562951,W,4,26,0.8,2071.915,M,-12.177,M,1.2,0000*42"
86,0,0.0,21.0109519958,"$GPGGA,205232.20,4029.0791913,N,10650.4561432,W,4,25,0.8,2071.961,M,-12.177,M,2.2,0000*43"
94,0,0.0,21.9277458191,"$GPGGA,205233.20,4029.0788516,N,10650.4559199,W,4,26,0.8,2071.981,M,-12.177,M,3.2,0000*40"
102,0,0.0,22.9837284088,"$GPGGA,205234.20,4029.0785247,N,10650.4556385,W,4,25,0.9,2071.977,M,-12.177,M,4.2,0000*45"
111,0,0.0,23.9998760223,"$GPGGA,205235.20,4029.0780770,N,10650.4553672,W,4,27,0.8,2072.022,M,-12.177,M,1.2,0000*44"
120,0,0.0,24.9449424744,"$GPGGA,205236.20,4029.0776510,N,10650.4550989,W,4,27,0.8,2072.023,M,-12.177,M,2.2,0000*40"
129,0,0.0,25.9704265594,"$GPGGA,205237.20,4029.0772436,N,10650.4548360,W,4,27,0.8,2072.021,M,-12.177,M,1.2,0000*45"
138,0,0.0,26.9851665497,"$GPGGA,205238.20,4029.0767523,N,10650.4546099,W,4,27,0.8,2072.030,M,-12.177,M,2.2,0000*43"
148,0,0.0,27.9241256714,"$GPGGA,205239.20,4029.0763392,N,10650.4543481,W,4,27,0.8,2072.043,M,-12.177,M,1.2,0000*45"
158,0,0.0,28.9866657257,"$GPGGA,205240.20,4029.0757864,N,10650.4542071,W,4,27,0.8,2072.146,M,-12.177,M,2.2,0000*43"
169,0,0.0,29.9115848541,"$GPGGA,205241.20,4029.0750999,N,10650.4539000,W,4,27,0.8,2072.133,M,-12.177,M,1.2,0000*4D"
181,0,0.0,30.9449958801,"$GPGGA,205242.20,4029.0745813,N,10650.4536384,W,4,28,0.8,2072.104,M,-12.177,M,2.2,0000*41"
192,0,0.0,31.9759559631,"$GPGGA,205243.20,4029.0740157,N,10650.4533062,W,4,28,0.8,2072.075,M,-12.177,M,1.2,0000*46"
203,0,0.0,32.8952331543,"$GPGGA,205244.20,4029.0735557,N,10650.4529912,W,4,28,0.8,2072.008,M,-12.177,M,2.2,0000*4B"
211,0,0.0,33.9256477356,"$GPGGA,205245.20,4029.0730437,N,10650.4526790,W,4,28,0.8,2071.927,M,-12.177,M,3.2,0000*45"
220,0,0.0,34.9607429504,"$GPGGA,205246.20,4029.0726774,N,10650.4524388,W,4,29,0.8,2071.840,M,-12.177,M,4.2,0000*4C"
229,0,0.0,35.895565033,"$GPGGA,205247.20,4029.0722079,N,10650.4521669,W,4,28,0.8,2071.768,M,-12.177,M,1.2,0000*4D"
239,0,0.0,36.9405059814,"$GPGGA,205248.20,4029.0717167,N,10650.4518455,W,4,28,0.8,2071.598,M,-12.177,M,2.2,0000*43"
247,0,0.0,40.445526123,"$GPGGA,205249.20,4029.0712964,N,10650.4515561,W,4,27,0.8,2071.463,M,-12.177,M,3.2,0000*4C"
247,0,0.0,40.4460105896,"$GPGGA,205250.20,4029.0712660,N,10650.4515137,W,4,27,0.8,2071.437,M,-12.177,M,4.2,0000*4E"
247,0,0.0,40.4464225769,"$GPGGA,205251.20,4029.0712695,N,10650.4515144,W,4,27,0.8,2071.434,M,-12.177,M,5.2,0000*43"
247,0,0.0,40.4468269348,"$GPGGA,205252.20,4029.0712741,N,10650.4515196,W,4,27,0.8,2071.419,M,-12.177,M,6.2,0000*4B"
