;GPS@@@
;Ver=1.1.0
;DIP=2009-00152-00
;Date=2024-May-21 22:12:49
;Offset_m=0.00,0.00,0.00
;Latency_s=0.00
;---------------------------------------------------------------------------------------------------------------------------------------------
traces,odo_tick,pos(m),time_elapsed(s),GPS
1,0,0.0,7.70227813721,"$GPGGA,205515.20,4029.0702025,N,10650.4540490,W,4,26,0.9,2072.004,M,-12.177,M,1.2,0000*44"
1,0,0.0,7.70276784897,"$GPGGA,205516.20,4029.0702054,N,10650.4540478,W,4,26,0.9,2072.004,M,-12.177,M,2.2,0000*44"
1,0,0.0,7.70318222046,"$GPGGA,205517.20,4029.0702076,N,10650.4540533,W,4,26,0.9,2071.994,M,-12.177,M,1.2,0000*4B"
2,0,0.0,8.71181297302,"$GPGGA,205518.20,4029.0702112,N,10650.4540591,W,4,26,0.9,2071.988,M,-12.177,M,2.2,0000*41"
2,0,0.0,8.71239852905,"$GPGGA,205519.20,4029.0702159,N,10650.4540613,W,4,26,0.9,2071.985,M,-12.177,M,3.2,0000*4A"
2,0,0.0,8.7128238678,"$GPGGA,205520.20,4029.0702189,N,10650.4540657,W,4,26,0.9,2071.988,M,-12.177,M,4.2,0000*47"
2,0,0.0,8.71322822571,"$GPGGA,205521.20,4029.0702366,N,10650.4541122,W,4,27,0.9,2072.005,M,-12.177,M,1.2,0000*4A"
3,0,0.0,9.74947452545,"$GPGGA,205522.20,4029.0702394,N,10650.4541118,W,4,27,0.9,2072.015,M,-12.177,M,2.2,0000*4F"
4,0,0.0,9.75002861023,"$GPGGA,205523.20,4029.0702788,N,10650.4541360,W,4,26,0.9,2072.037,M,-12.177,M,1.2,0000*48"
11,0,0.0,10.7823066711,"$GPGGA,205524.20,4029.0705423,N,10650.4543733,W,4,25,0.9,2072.157,M,-12.177,M,2.2,0000*4D"
20,0,0.0,11.8033857346,"$GPGGA,205525.20,4029.0709453,N,10650.4547309,W,4,25,0.9,2072.309,M,-12.177,M,3.2,0000*46"
30,0,0.0,12.7612791061,"$GPGGA,205526.20,4029.0713484,N,10650.4550913,W,4,24,0.9,2072.499,M,-12.177,M,4.2,0000*4B"
40,0,0.0,13.7821130753,"$GPGGA,205527.20,4029.0718605,N,10650.4555150,W,4,24,0.9,2072.661,M,-12.177,M,1.2,0000*40"
46,0,0.0,14.8102703094,"$GPGGA,205528.20,4029.0721110,N,10650.4557284,W,4,25,0.9,2072.764,M,-12.177,M,2.2,0000*48"
53,0,0.0,15.7358455658,"$GPGGA,205529.20,4029.0724223,N,10650.4559858,W,4,26,0.8,2072.931,M,-12.177,M,3.2,0000*47"
60,0,0.0,16.7634429932,"$GPGGA,205530.20,4029.0726569,N,10650.4561740,W,4,27,0.7,2073.031,M,-12.177,M,4.2,0000*48"
67,0,0.0,17.6780986786,"$GPGGA,205531.20,4029.0730022,N,10650.4564419,W,4,26,0.8,2073.240,M,-12.177,M,1.2,0000*41"
75,0,0.0,18.7311420441,"$GPGGA,205532.20,4029.0733907,N,10650.4564449,W,1,28,0.5,2071.828,M,-12.177,M,2.2,*49"
82,0,0.0,19.7604084015,"$GPGGA,205533.20,4029.0737731,N,10650.4574762,W,1,25,2.8,2070.211,M,-12.177,M,1.2,*4C"
91,0,0.0,20.7023735046,"$GPGGA,205534.20,4029.0741417,N,10650.4571929,W,4,27,1.2,2073.763,M,-12.177,M,2.2,0000*47"
98,0,0.0,21.7181015015,"$GPGGA,205535.20,4029.0744959,N,10650.4573907,W,4,26,1.5,2073.843,M,-12.177,M,3.2,0000*40"
105,0,0.0,22.7777061462,"$GPGGA,205536.20,4029.0749307,N,10650.4575957,W,4,25,2.8,2073.941,M,-12.177,M,4.2,0000*45"
112,0,0.0,23.6997947693,"$GPGGA,205537.20,4029.0752966,N,10650.4578056,W,4,26,2.8,2073.914,M,-12.177,M,1.2,0000*40"
121,0,0.0,24.7631587982,"$GPGGA,205538.20,4029.0757489,N,10650.4580691,W,4,27,1.5,2073.851,M,-12.177,M,2.2,0000*40"
132,0,0.0,25.8232975006,"$GPGGA,205539.20,4029.0762716,N,10650.4584575,W,4,25,1.0,2073.735,M,-12.177,M,1.2,0000*46"
141,0,0.0,26.7526035309,"$GPGGA,205540.20,4029.0767001,N,10650.4587962,W,4,24,1.0,2073.603,M,-12.177,M,2.2,0000*43"
151,0,0.0,27.794588089,"$GPGGA,205541.20,4029.0771563,N,10650.4591953,W,4,26,0.8,2073.372,M,-12.177,M,3.2,0000*48"
158,0,0.0,28.7476806641,"$GPGGA,205542.20,4029.0774972,N,10650.4593534,W,4,25,1.0,2073.316,M,-12.177,M,4.2,0000*42"
164,0,0.0,29.7656154633,"$GPGGA,205543.20,4029.0777926,N,10650.4595171,W,4,26,0.8,2073.263,M,-12.177,M,5.2,0000*4A"
173,0,0.0,30.6942157745,"$GPGGA,205544.20,4029.0781929,N,10650.4597397,W,4,24,1.0,2073.230,M,-12.177,M,6.2,0000*4D"
182,0,0.0,31.7228355408,"$GPGGA,205545.20,4029.0786657,N,10650.4600433,W,4,26,0.8,2073.143,M,-12.177,M,7.2,0000*44"
191,0,0.0,32.7845573425,"$GPGGA,205546.20,4029.0791140,N,10650.4603433,W,4,24,1.0,2073.064,M,-12.177,M,8.2,0000*43"
200,0,0.0,33.7195091248,"$GPGGA,205547.20,4029.0794999,N,10650.4605945,W,4,25,1.0,2073.012,M,-12.177,M,1.2,0000*48"
209,0,0.0,34.7546348572,"$GPGGA,205548.20,4029.0799858,N,10650.4608119,W,4,25,1.0,2072.990,M,-12.177,M,2.2,0000*4B"
215,0,0.0,35.6613883972,"$GPGGA,205549.20,4029.0803633,N,10650.4610804,W,4,25,1.0,2072.897,M,-12.177,M,3.2,0000*4E"
220,0,0.0,36.7244110107,"$GPGGA,205550.20,4029.0805828,N,10650.4612665,W,4,26,0.8,2072.851,M,-12.177,M,4.2,0000*48"
227,0,0.0,37.6773147583,"$GPGGA,205551.20,4029.0809304,N,10650.4614930,W,4,25,1.0,2072.769,M,-12.177,M,1.2,0000*42"
235,0,0.0,38.7089767456,"$GPGGA,205552.20,4029.0812599,N,10650.4617842,W,4,25,1.0,2072.699,M,-12.177,M,2.2,0000*43"
243,0,0.0,39.7262306213,"$GPGGA,205553.20,4029.0816832,N,10650.4621265,W,4,25,1.0,2072.572,M,-12.177,M,3.2,0000*47"
245,0,0.0,43.7736053467,"$GPGGA,205554.20,4029.0818060,N,10650.4622553,W,4,25,1.0,2072.527,M,-12.177,M,4.2,0000*47"
245,0,0.0,43.7740859985,"$GPGGA,205555.20,4029.0818046,N,10650.4622546,W,4,25,1.0,2072.525,M,-12.177,M,5.2,0000*45"
246,0,0.0,43.7745666504,"$GPGGA,205556.20,4029.0820415,N,10650.4619370,W,1,26,0.5,2074.667,M,-12.177,M,6.2,*46"
246,0,0.0,43.7750167847,"$GPGGA,205557.20,4029.0817638,N,10650.4618506,W,1,24,1.4,2074.659,M,-12.177,M,1.2,*40"
251,0,0.0,44.7808990479,"$GPGGA,205558.20,4029.0819672,N,10650.4624103,W,4,25,1.0,2072.478,M,-12.177,M,2.2,0000*45"
253,0,0.0,46.0527076721,"$GPGGA,205559.20,4029.0821354,N,10650.4625240,W,4,25,1.0,2072.426,M,-12.177,M,1.2,0000*43"
253,0,0.0,46.053188324,"$GPGGA,205600.20,4029.0821367,N,10650.4625283,W,4,25,1.0,2072.419,M,-12.177,M,2.2,0000*4C"
