;GPS@@@
;Ver=1.1.0
;DIP=2009-00152-00
;Date=2024-May-21 22:11:19
;Offset_m=0.00,0.00,0.00
;Latency_s=0.00
;---------------------------------------------------------------------------------------------------------------------------------------------
traces,odo_tick,pos(m),time_elapsed(s),GPS
1,0,0.0,2.85141897202,"$GPGGA,205345.20,4029.0826315,N,10650.4608554,W,4,27,1.0,2072.032,M,-12.177,M,1.2,0000*44"
2,0,0.0,2.85187196732,"$GPGGA,205346.20,4029.0826342,N,10650.4608577,W,4,27,1.0,2072.024,M,-12.177,M,2.2,0000*40"
4,0,0.0,3.77233791351,"$GPGGA,205347.20,4029.0825390,N,10650.4607845,W,4,28,1.0,2072.034,M,-12.177,M,1.2,0000*43"
9,0,0.0,4.83261108398,"$GPGGA,205348.20,4029.0822950,N,10650.4604014,W,4,27,1.0,2072.082,M,-12.177,M,2.2,0000*43"
16,0,0.0,6.77264404297,"$GPGGA,205349.20,4029.0820315,N,10650.4601195,W,4,30,0.9,2072.124,M,-12.177,M,1.2,0000*46"
17,0,0.0,6.77314376831,"$GPGGA,205350.20,4029.0819904,N,10650.4600799,W,4,28,1.0,2072.137,M,-12.177,M,2.2,0000*45"
23,0,0.0,7.83584117889,"$GPGGA,205351.20,4029.0818021,N,10650.4597824,W,4,29,1.0,2072.208,M,-12.177,M,1.2,0000*42"
34,0,0.0,8.86814212799,"$GPGGA,205352.20,4029.0811035,N,10650.4595941,W,4,27,1.0,2072.323,M,-12.177,M,2.2,0000*48"
44,0,0.0,9.8009929657,"$GPGGA,205353.20,4029.0806657,N,10650.4592685,W,4,27,1.0,2072.387,M,-12.177,M,1.2,0000*40"
54,0,0.0,10.8490343094,"$GPGGA,205354.20,4029.0801792,N,10650.4589381,W,4,28,0.7,2072.420,M,-12.177,M,2.2,0000*43"
63,0,0.0,11.8936548233,"$GPGGA,205355.20,4029.0797176,N,10650.4586610,W,4,27,1.0,2072.461,M,-12.177,M,1.2,0000*43"
77,0,0.0,12.8201122284,"$GPGGA,205356.20,4029.0791177,N,10650.4581662,W,4,29,0.7,2072.402,M,-12.177,M,2.2,0000*4B"
87,0,0.0,13.8412094116,"$GPGGA,205357.20,4029.0786354,N,10650.4578551,W,4,27,1.0,2072.518,M,-12.177,M,1.2,0000*4B"
95,0,0.0,14.8577747345,"$GPGGA,205358.20,4029.0782471,N,10650.4575116,W,4,27,1.4,2072.585,M,-12.177,M,2.2,0000*49"
101,0,0.0,15.7904548645,"$GPGGA,205359.20,4029.0779732,N,10650.4574769,W,4,27,1.4,2072.723,M,-12.177,M,1.2,0000*4A"
111,0,0.0,16.8256206512,"$GPGGA,205400.20,4029.0774560,N,10650.4571647,W,4,26,1.0,2072.789,M,-12.177,M,2.2,0000*47"
119,0,0.0,17.8725967407,"$GPGGA,205401.20,4029.0770696,N,10650.4569402,W,4,26,0.8,2072.881,M,-12.177,M,1.2,0000*4F"
129,0,0.0,18.9035663605,"$GPGGA,205402.20,4029.0766069,N,10650.4565334,W,4,27,0.8,2072.944,M,-12.177,M,2.2,0000*49"
138,0,0.0,19.8038387299,"$GPGGA,205403.20,4029.0761367,N,10650.4561172,W,4,27,0.8,2072.864,M,-12.177,M,3.2,0000*44"
147,0,0.0,20.8573303223,"$GPGGA,205404.20,4029.0757670,N,10650.4558420,W,4,26,0.8,2072.860,M,-12.177,M,4.2,0000*4F"
156,0,0.0,21.8820705414,"$GPGGA,205405.20,4029.0753012,N,10650.4555801,W,4,26,0.8,2072.931,M,-12.177,M,1.2,0000*4A"
165,0,0.0,22.8490753174,"$GPGGA,205406.20,4029.0748320,N,10650.4552529,W,4,25,0.8,2072.848,M,-12.177,M,2.2,0000*4E"
173,0,0.0,23.8485412598,"$GPGGA,205407.20,4029.0744726,N,10650.4548825,W,4,27,0.8,2072.746,M,-12.177,M,1.2,0000*4B"
182,0,0.0,24.8713760376,"$GPGGA,205408.20,4029.0739964,N,10650.4546049,W,4,27,0.8,2072.575,M,-12.177,M,2.2,0000*4B"
189,0,0.0,25.7902336121,"$GPGGA,205409.20,4029.0736620,N,10650.4544394,W,4,26,0.8,2072.455,M,-12.177,M,1.2,0000*4A"
199,0,0.0,26.8391227722,"$GPGGA,205410.20,4029.0731267,N,10650.4542602,W,4,25,0.8,2072.363,M,-12.177,M,2.2,0000*4C"
208,0,0.0,27.8884391785,"$GPGGA,205411.20,4029.0726900,N,10650.4540250,W,4,26,0.8,2072.256,M,-12.177,M,1.2,0000*47"
213,0,0.0,28.8269042969,"$GPGGA,205412.20,4029.0724199,N,10650.4538547,W,4,25,0.9,2072.175,M,-12.177,M,2.2,0000*43"
222,0,0.0,29.8646774292,"$GPGGA,205413.20,4029.0720005,N,10650.4536675,W,4,26,0.8,2072.143,M,-12.177,M,1.2,0000*4A"
232,0,0.0,30.881696701,"$GPGGA,205414.20,4029.0715066,N,10650.4533835,W,4,26,0.8,2071.927,M,-12.177,M,2.2,0000*4B"
242,0,0.0,31.8005199432,"$GPGGA,205415.20,4029.0710038,N,10650.4530162,W,4,26,0.8,2071.780,M,-12.177,M,1.2,0000*4C"
249,0,0.0,32.8325386047,"$GPGGA,205416.20,4029.0706965,N,10650.4526894,W,4,26,0.8,2071.626,M,-12.177,M,2.2,0000*40"
250,0,0.0,33.2148895264,"$GPGGA,205417.20,4029.0706043,N,10650.4526075,W,4,28,0.8,2071.567,M,-12.177,M,1.2,0000*40"
