;GPS@@@
;Ver=1.1.0
;DIP=2009-00152-00
;Date=2024-May-21 20:54:43
;Offset_m=0.00,0.00,0.00
;Latency_s=0.00
;---------------------------------------------------------------------------------------------------------------------------------------------
traces,odo_tick,pos(m),time_elapsed(s),GPS
3,0,0.0,1.66860795021,"$GPGGA,193708.20,4029.0707285,N,10650.4543830,W,4,24,1.2,2072.114,M,-12.177,M,2.2,0000*45"
9,0,0.0,2.69143009186,"$GPGGA,193709.20,4029.0709777,N,10650.4546071,W,4,24,1.2,2072.207,M,-12.177,M,1.2,0000*48"
17,0,0.0,3.71363806725,"$GPGGA,193710.20,4029.0712668,N,10650.4548782,W,4,24,1.2,2072.364,M,-12.177,M,2.2,0000*47"
25,0,0.0,4.62261295319,"$GPGGA,193711.20,4029.0716587,N,10650.4552374,W,4,24,1.2,2072.556,M,-12.177,M,1.2,0000*42"
34,0,0.0,5.66458892822,"$GPGGA,193712.20,4029.0720216,N,10650.4554449,W,4,25,1.2,2072.624,M,-12.177,M,2.2,0000*40"
41,0,0.0,6.71651315689,"$GPGGA,193713.20,4029.0723401,N,10650.4557681,W,4,24,1.2,2072.779,M,-12.177,M,1.2,0000*4C"
48,0,0.0,7.63095998764,"$GPGGA,193714.20,4029.0725685,N,10650.4560017,W,4,25,1.2,2072.938,M,-12.177,M,2.2,0000*47"
55,0,0.0,8.63583564758,"$GPGGA,193715.20,4029.0728339,N,10650.4562633,W,4,25,1.2,2073.117,M,-12.177,M,3.2,0000*4E"
61,0,0.0,9.6777009964,"$GPGGA,193716.20,4029.0730723,N,10650.4564778,W,4,25,1.2,2073.247,M,-12.177,M,4.2,0000*42"
68,0,0.0,10.6189479828,"$GPGGA,193717.20,4029.0734866,N,10650.4567631,W,4,25,1.2,2073.420,M,-12.177,M,5.2,0000*40"
74,0,0.0,11.635802269,"$GPGGA,193718.20,4029.0737664,N,10650.4569888,W,4,25,1.2,2073.559,M,-12.177,M,6.2,0000*4E"
82,0,0.0,12.6775941849,"$GPGGA,193719.20,4029.0741116,N,10650.4572191,W,4,25,1.2,2073.707,M,-12.177,M,1.2,0000*49"
89,0,0.0,13.6989374161,"$GPGGA,193720.20,4029.0745020,N,10650.4574270,W,4,25,1.2,2073.813,M,-12.177,M,2.2,0000*40"
98,0,0.0,14.6395425797,"$GPGGA,193721.20,4029.0749245,N,10650.4576489,W,4,25,1.2,2073.906,M,-12.177,M,3.2,0000*4A"
105,0,0.0,15.6836109161,"$GPGGA,193722.20,4029.0756196,N,10650.4575967,W,1,26,0.6,2075.062,M,-12.177,M,4.2,*4D"
114,0,0.0,16.6091766357,"$GPGGA,193723.20,4029.0761678,N,10650.4579604,W,1,25,0.6,2074.973,M,-12.177,M,5.2,*43"
124,0,0.0,17.6375141144,"$GPGGA,193724.20,4029.0766560,N,10650.4582914,W,1,26,0.6,2074.650,M,-12.177,M,6.2,*4D"
133,0,0.0,18.6690425873,"$GPGGA,193725.20,4029.0770848,N,10650.4585902,W,1,25,0.6,2074.288,M,-12.177,M,7.2,*4F"
143,0,0.0,19.5935058594,"$GPGGA,193726.20,4029.0775503,N,10650.4590240,W,1,26,0.6,2073.925,M,-12.177,M,8.2,*45"
151,0,0.0,20.617181778,"$GPGGA,193727.20,4029.0779372,N,10650.4592769,W,1,26,0.6,2073.674,M,-12.177,M,9.2,*4E"
161,0,0.0,21.6708030701,"$GPGGA,193728.20,4029.0783507,N,10650.4595119,W,1,25,0.6,2073.473,M,-12.177,M,0.0,*4B"
169,0,0.0,22.5960006714,"$GPGGA,193729.20,4029.0788408,N,10650.4629260,W,1,26,1.3,2073.159,M,-12.177,M,1.2,*4F"
178,0,0.0,23.6281795502,"$GPGGA,193730.20,4029.0787849,N,10650.4603925,W,4,26,1.3,2073.129,M,-12.177,M,2.2,0000*42"
184,0,0.0,24.6419296265,"$GPGGA,193731.20,4029.0790940,N,10650.4605886,W,4,25,1.0,2073.072,M,-12.177,M,1.2,0000*4F"
189,0,0.0,25.6208686829,"$GPGGA,193732.20,4029.0792746,N,10650.4607755,W,4,25,1.0,2073.103,M,-12.177,M,2.2,0000*41"
198,0,0.0,26.6129894257,"$GPGGA,193733.20,4029.0796532,N,10650.4611191,W,4,25,1.0,2073.103,M,-12.177,M,1.2,0000*4F"
206,0,0.0,27.6592464447,"$GPGGA,193734.20,4029.0800420,N,10650.4614580,W,4,25,1.0,2073.066,M,-12.177,M,2.2,0000*4A"
215,0,0.0,28.7046909332,"$GPGGA,193735.20,4029.0804108,N,10650.4619384,W,4,25,1.1,2072.981,M,-12.177,M,1.2,0000*4C"
218,0,0.0,29.6739768982,"$GPGGA,193736.20,4029.0805421,N,10650.4620879,W,4,26,1.0,2072.968,M,-12.177,M,2.2,0000*45"
223,0,0.0,30.605260849,"$GPGGA,193737.20,4029.0807403,N,10650.4622930,W,4,25,1.0,2072.969,M,-12.177,M,1.2,0000*49"
232,0,0.0,31.6293468475,"$GPGGA,193738.20,4029.0811066,N,10650.4626211,W,4,25,1.0,2072.898,M,-12.177,M,2.2,0000*46"
240,0,0.0,32.6379737854,"$GPGGA,193739.20,4029.0815391,N,10650.4628784,W,4,23,1.0,2072.724,M,-12.177,M,1.2,0000*42"
244,0,0.0,33.6708526611,"$GPGGA,193740.20,4029.0817666,N,10650.4630659,W,4,24,1.1,2072.653,M,-12.177,M,2.2,0000*4F"
245,0,0.0,34.0461120605,"$GPGGA,193741.20,4029.0818376,N,10650.4631442,W,4,24,1.1,2072.615,M,-12.177,M,3.2,0000*4F"
