;GPS@@@
;Ver=1.1.0
;DIP=2009-00152-00
;Date=2024-May-21 20:34:41
;Offset_m=0.00,0.00,0.00
;Latency_s=0.00
;---------------------------------------------------------------------------------------------------------------------------------------------
traces,odo_tick,pos(m),time_elapsed(s),GPS
1,0,0.0,1.27651298046,"$GPGGA,191706.20,4029.0835379,N,10650.4454732,W,4,27,0.7,2069.959,M,-12.177,M,4.2,0000*45"
7,0,0.0,2.34735393524,"$GPGGA,191707.20,4029.0834083,N,10650.4458971,W,4,25,0.7,2070.030,M,-12.177,M,1.2,0000*4F"
15,0,0.0,3.30286097527,"$GPGGA,191708.20,4029.0832451,N,10650.4463481,W,4,25,0.7,2070.064,M,-12.177,M,2.2,0000*45"
22,0,0.0,4.23079395294,"$GPGGA,191709.20,4029.0831068,N,10650.4468381,W,4,26,0.7,2070.113,M,-12.177,M,1.2,0000*44"
30,0,0.0,5.27829790115,"$GPGGA,191710.20,4029.0829188,N,10650.4472766,W,4,27,0.7,2070.147,M,-12.177,M,2.2,0000*4F"
37,0,0.0,6.28912210464,"$GPGGA,191711.20,4029.0827508,N,10650.4477363,W,4,27,0.7,2070.194,M,-12.177,M,1.2,0000*45"
42,0,0.0,7.25704908371,"$GPGGA,191712.20,4029.0826440,N,10650.4480581,W,4,26,0.7,2070.282,M,-12.177,M,2.2,0000*4E"
48,0,0.0,8.26605892181,"$GPGGA,191713.20,4029.0825274,N,10650.4484526,W,4,27,0.7,2070.329,M,-12.177,M,1.2,0000*46"
53,0,0.0,9.30409431458,"$GPGGA,191714.20,4029.0824681,N,10650.4487493,W,4,26,0.7,2070.424,M,-12.177,M,2.2,0000*4A"
57,0,0.0,10.3335599899,"$GPGGA,191715.20,4029.0823910,N,10650.4490050,W,4,28,0.7,2070.467,M,-12.177,M,1.2,0000*4C"
63,0,0.0,11.2596588135,"$GPGGA,191716.20,4029.0822641,N,10650.4494060,W,4,27,0.7,2070.528,M,-12.177,M,2.2,0000*44"
66,0,0.0,12.2649850845,"$GPGGA,191717.20,4029.0821565,N,10650.4496517,W,4,27,0.7,2070.581,M,-12.177,M,1.2,0000*44"
67,0,0.0,13.2762842178,"$GPGGA,191718.20,4029.0821397,N,10650.4496805,W,4,28,0.7,2070.589,M,-12.177,M,2.2,0000*4A"
72,0,0.0,14.2267961502,"$GPGGA,191719.20,4029.0820119,N,10650.4499358,W,4,28,0.7,2070.687,M,-12.177,M,1.2,0000*4C"
78,0,0.0,15.2601604462,"$GPGGA,191720.20,4029.0818718,N,10650.4502085,W,4,28,0.7,2070.767,M,-12.177,M,2.2,0000*46"
84,0,0.0,16.2699718475,"$GPGGA,191721.20,4029.0817292,N,10650.4505469,W,4,28,0.7,2070.886,M,-12.177,M,1.2,0000*4D"
89,0,0.0,17.3091259003,"$GPGGA,191722.20,4029.0816079,N,10650.4508421,W,4,28,0.7,2070.989,M,-12.177,M,2.2,0000*44"
95,0,0.0,18.2402572632,"$GPGGA,191723.20,4029.0814613,N,10650.4512341,W,4,27,0.7,2071.089,M,-12.177,M,1.2,0000*43"
102,0,0.0,19.2557888031,"$GPGGA,191724.20,4029.0812326,N,10650.4517453,W,4,28,0.7,2071.178,M,-12.177,M,2.2,0000*43"
109,0,0.0,20.2802600861,"$GPGGA,191725.20,4029.0810843,N,10650.4521329,W,4,28,0.7,2071.254,M,-12.177,M,1.2,0000*49"
118,0,0.0,21.3332805634,"$GPGGA,191726.20,4029.0808002,N,10650.4527503,W,4,28,0.7,2071.323,M,-12.177,M,2.2,0000*44"
128,0,0.0,22.2817382812,"$GPGGA,191727.20,4029.0805359,N,10650.4532442,W,4,28,0.7,2071.376,M,-12.177,M,1.2,0000*46"
136,0,0.0,23.3173961639,"$GPGGA,191728.20,4029.0802880,N,10650.4536819,W,4,28,0.7,2071.441,M,-12.177,M,2.2,0000*47"
142,0,0.0,24.2500915527,"$GPGGA,191729.20,4029.0800773,N,10650.4541349,W,4,28,0.7,2071.504,M,-12.177,M,1.2,0000*4A"
149,0,0.0,25.3200378418,"$GPGGA,191730.20,4029.0798931,N,10650.4545008,W,4,28,0.7,2071.565,M,-12.177,M,2.2,0000*42"
155,0,0.0,26.2345867157,"$GPGGA,191731.20,4029.0797113,N,10650.4548152,W,4,28,0.7,2071.647,M,-12.177,M,1.2,0000*47"
157,0,0.0,30.2867164612,"$GPGGA,191732.20,4029.0796148,N,10650.4549984,W,4,28,0.7,2071.694,M,-12.177,M,2.2,0000*44"
157,0,0.0,30.287191391,"$GPGGA,191733.20,4029.0796133,N,10650.4550047,W,4,28,0.7,2071.699,M,-12.177,M,1.2,0000*49"
158,0,0.0,32.2467765808,"$GPGGA,191734.20,4029.0796119,N,10650.4550012,W,4,28,0.7,2071.684,M,-12.177,M,2.2,0000*49"
158,0,0.0,32.2472877502,"$GPGGA,191735.20,4029.0796116,N,10650.4550026,W,4,28,0.7,2071.687,M,-12.177,M,1.2,0000*40"
158,0,0.0,32.247756958,"$GPGGA,191736.20,4029.0795999,N,10650.4550247,W,4,28,0.7,2071.687,M,-12.177,M,2.2,0000*49"
159,0,0.0,32.2481765747,"$GPGGA,191737.20,4029.0795962,N,10650.4550382,W,4,28,0.7,2071.695,M,-12.177,M,1.2,0000*44"
165,0,0.0,33.2802734375,"$GPGGA,191738.20,4029.0794133,N,10650.4553141,W,4,28,0.7,2071.793,M,-12.177,M,2.2,0000*4C"
173,0,0.0,34.3037948608,"$GPGGA,191739.20,4029.0791285,N,10650.4557691,W,4,28,0.7,2071.878,M,-12.177,M,1.2,0000*41"
181,0,0.0,35.2405014038,"$GPGGA,191740.20,4029.0788714,N,10650.4561373,W,4,27,0.7,2072.038,M,-12.177,M,2.2,0000*45"
190,0,0.0,36.2763328552,"$GPGGA,191741.20,4029.0785790,N,10650.4566753,W,4,27,0.7,2072.225,M,-12.177,M,1.2,0000*49"
195,0,0.0,37.3110084534,"$GPGGA,191742.20,4029.0784801,N,10650.4568744,W,4,26,0.7,2072.335,M,-12.177,M,2.2,0000*46"
199,0,0.0,38.2470092773,"$GPGGA,191743.20,4029.0783584,N,10650.4570123,W,4,26,0.7,2072.399,M,-12.177,M,1.2,0000*4B"
205,0,0.0,39.2521896362,"$GPGGA,191744.20,4029.0781409,N,10650.4573518,W,4,28,0.7,2072.605,M,-12.177,M,2.2,0000*48"
207,0,0.0,40.2913551331,"$GPGGA,191745.20,4029.0781113,N,10650.4574405,W,4,26,0.8,2072.658,M,-12.177,M,1.2,0000*47"
211,0,0.0,41.3060646057,"$GPGGA,191746.20,4029.0779657,N,10650.4575724,W,4,27,0.8,2072.760,M,-12.177,M,2.2,0000*4D"
216,0,0.0,42.3394775391,"$GPGGA,191747.20,4029.0778208,N,10650.4579037,W,4,27,0.8,2072.910,M,-12.177,M,1.2,0000*40"
223,0,0.0,43.2801628113,"$GPGGA,191748.20,4029.0775970,N,10650.4583919,W,4,26,0.8,2073.118,M,-12.177,M,2.2,0000*45"
229,0,0.0,44.3140563965,"$GPGGA,191749.20,4029.0775002,N,10650.4587590,W,4,26,0.9,2073.208,M,-12.177,M,1.2,0000*41"
234,0,0.0,45.2384719849,"$GPGGA,191750.20,4029.0773601,N,10650.4590866,W,4,26,0.9,2073.311,M,-12.177,M,2.2,0000*42"
235,0,0.0,47.2619514465,"$GPGGA,191751.20,4029.0773106,N,10650.4592225,W,4,26,0.9,2073.345,M,-12.177,M,3.2,0000*4C"
236,0,0.0,47.2625007629,"$GPGGA,191752.20,4029.0773128,N,10650.4592255,W,4,26,0.9,2073.339,M,-12.177,M,4.2,0000*48"
238,0,0.0,48.3023376465,"$GPGGA,191753.20,4029.0772656,N,10650.4593171,W,4,26,0.9,2073.381,M,-12.177,M,1.2,0000*44"
242,0,0.0,49.2892456055,"$GPGGA,191754.20,4029.0771264,N,10650.4595558,W,4,26,0.9,2073.505,M,-12.177,M,2.2,0000*45"
247,0,0.0,54.2430877686,"$GPGGA,191755.20,4029.0769460,N,10650.4597686,W,4,26,0.9,2073.634,M,-12.177,M,3.2,0000*4D"
247,0,0.0,54.287197113,"$GPGGA,191756.20,4029.0769271,N,10650.4597846,W,4,26,0.9,2073.638,M,-12.177,M,4.2,0000*41"
247,0,0.0,54.2879524231,"$GPGGA,191757.20,4029.0769280,N,10650.4597853,W,4,25,1.0,2073.625,M,-12.177,M,5.2,0000*4C"
248,0,0.0,54.2885627747,"$GPGGA,191758.20,4029.0772421,N,10650.4595911,W,1,26,0.6,2073.254,M,-12.177,M,6.2,*41"
248,0,0.0,54.2890548706,"$GPGGA,191759.20,4029.0773378,N,10650.4595019,W,1,27,0.5,2073.231,M,-12.177,M,7.2,*4B"
253,0,0.0,55.2508735657,"$GPGGA,191800.20,4029.0772167,N,10650.4596683,W,1,28,0.5,2073.336,M,-12.177,M,8.2,*45"
257,0,0.0,56.2817306519,"$GPGGA,191801.20,4029.0766691,N,10650.4609761,W,1,28,1.2,2073.960,M,-12.177,M,1.2,*41"
258,0,0.0,57.4540596008,"$GPGGA,191802.20,4029.0765270,N,10650.4603658,W,4,28,1.2,2073.976,M,-12.177,M,2.2,0000*4A"
258,0,0.0,57.4543228149,"$GPGGA,191803.20,4029.0765244,N,10650.4603622,W,4,28,1.2,2073.972,M,-12.177,M,3.2,0000*44"
