;GPS@@@
;Ver=1.1.0
;DIP=2009-00152-00
;Date=2024-May-21 20:51:55
;Offset_m=0.00,0.00,0.00
;Latency_s=0.00
;---------------------------------------------------------------------------------------------------------------------------------------------
traces,odo_tick,pos(m),time_elapsed(s),GPS
2,0,0.0,1.47815704346,"$GPGGA,193420.20,4029.0809432,N,10650.4631924,W,4,24,1.2,2073.076,M,-12.177,M,2.2,0000*41"
10,0,0.0,2.49763894081,"$GPGGA,193421.20,4029.0806255,N,10650.4628448,W,4,24,1.1,2073.121,M,-12.177,M,1.2,0000*44"
16,0,0.0,3.53487205505,"$GPGGA,193422.20,4029.0803203,N,10650.4625781,W,4,23,1.2,2073.185,M,-12.177,M,2.2,0000*43"
24,0,0.0,4.56148719788,"$GPGGA,193423.20,4029.0799796,N,10650.4622971,W,4,23,1.2,2073.239,M,-12.177,M,1.2,0000*46"
31,0,0.0,5.52415800095,"$GPGGA,193424.20,4029.0797091,N,10650.4620363,W,4,24,1.2,2073.306,M,-12.177,M,2.2,0000*4D"
39,0,0.0,6.55106306076,"$GPGGA,193425.20,4029.0793156,N,10650.4617135,W,4,25,1.1,2073.363,M,-12.177,M,1.2,0000*45"
47,0,0.0,7.47587394714,"$GPGGA,193426.20,4029.0789341,N,10650.4614791,W,4,25,1.2,2073.430,M,-12.177,M,2.2,0000*43"
54,0,0.0,8.49294567108,"$GPGGA,193427.20,4029.0785388,N,10650.4612406,W,4,24,1.2,2073.473,M,-12.177,M,3.2,0000*47"
61,0,0.0,9.53303909302,"$GPGGA,193428.20,4029.0782595,N,10650.4610475,W,4,24,1.2,2073.516,M,-12.177,M,4.2,0000*46"
68,0,0.0,10.5738477707,"$GPGGA,193429.20,4029.0779121,N,10650.4607939,W,4,24,1.2,2073.574,M,-12.177,M,1.2,0000*4A"
77,0,0.0,11.505654335,"$GPGGA,193430.20,4029.0775995,N,10650.4604027,W,4,24,1.2,2073.568,M,-12.177,M,2.2,0000*42"
85,0,0.0,12.5279693604,"$GPGGA,193431.20,4029.0772370,N,10650.4601059,W,4,25,1.2,2073.640,M,-12.177,M,1.2,0000*42"
92,0,0.0,13.4701595306,"$GPGGA,193432.20,4029.0769359,N,10650.4598271,W,4,24,1.2,2073.690,M,-12.177,M,2.2,0000*44"
100,0,0.0,14.511297226,"$GPGGA,193433.20,4029.0765535,N,10650.4596543,W,4,23,1.2,2073.801,M,-12.177,M,3.2,0000*4D"
108,0,0.0,15.5802726746,"$GPGGA,193434.20,4029.0762318,N,10650.4594070,W,4,24,1.2,2073.933,M,-12.177,M,4.2,0000*43"
115,0,0.0,16.5212192535,"$GPGGA,193435.20,4029.0758940,N,10650.4590972,W,4,24,1.2,2074.070,M,-12.177,M,1.2,0000*4F"
122,0,0.0,17.5655727386,"$GPGGA,193436.20,4029.0755997,N,10650.4588199,W,4,24,1.2,2074.127,M,-12.177,M,2.2,0000*4F"
131,0,0.0,18.5229415894,"$GPGGA,193437.20,4029.0751128,N,10650.4584227,W,4,25,1.1,2074.172,M,-12.177,M,3.2,0000*4F"
140,0,0.0,19.5431118011,"$GPGGA,193438.20,4029.0746723,N,10650.4580909,W,4,24,1.2,2074.090,M,-12.177,M,4.2,0000*40"
150,0,0.0,20.5023803711,"$GPGGA,193439.20,4029.0741723,N,10650.4577048,W,4,25,1.2,2073.921,M,-12.177,M,5.2,0000*46"
160,0,0.0,21.5547580719,"$GPGGA,193440.20,4029.0741975,N,10650.4569931,W,1,26,0.6,2073.583,M,-12.177,M,6.2,*49"
172,0,0.0,22.5263252258,"$GPGGA,193441.20,4029.0742118,N,10650.4569474,W,1,25,1.4,2081.403,M,-12.177,M,1.2,*47"
184,0,0.0,23.4831886292,"$GPGGA,193442.20,4029.0725985,N,10650.4565735,W,4,23,2.2,2073.137,M,-12.177,M,2.2,0000*49"
194,0,0.0,24.4941368103,"$GPGGA,193443.20,4029.0722199,N,10650.4561756,W,4,27,0.9,2072.927,M,-12.177,M,1.2,0000*4D"
204,0,0.0,25.441986084,"$GPGGA,193444.20,4029.0717461,N,10650.4558011,W,4,26,1.0,2072.734,M,-12.177,M,2.2,0000*46"
213,0,0.0,26.4777469635,"$GPGGA,193445.20,4029.0713394,N,10650.4554374,W,4,27,0.9,2072.584,M,-12.177,M,1.2,0000*41"
222,0,0.0,27.504825592,"$GPGGA,193446.20,4029.0709148,N,10650.4550703,W,4,27,0.9,2072.401,M,-12.177,M,2.2,0000*45"
229,0,0.0,28.5054092407,"$GPGGA,193447.20,4029.0705948,N,10650.4547507,W,4,27,0.9,2072.286,M,-12.177,M,3.2,0000*48"
230,0,0.0,30.4510879517,"$GPGGA,193448.20,4029.0705296,N,10650.4546428,W,4,27,0.9,2072.249,M,-12.177,M,4.2,0000*46"
231,0,0.0,30.451625824,"$GPGGA,193449.20,4029.0705287,N,10650.4546394,W,4,26,0.9,2072.234,M,-12.177,M,1.2,0000*49"
236,0,0.0,31.4630584717,"$GPGGA,193450.20,4029.0703523,N,10650.4545263,W,4,27,0.9,2072.158,M,-12.177,M,2.2,0000*4F"
239,0,0.0,32.4795074463,"$GPGGA,193451.20,4029.0701507,N,10650.4544321,W,4,25,1.0,2072.113,M,-12.177,M,3.2,0000*48"
240,0,0.0,32.8880004883,"$GPGGA,193452.20,4029.0700157,N,10650.4543668,W,4,26,1.0,2072.063,M,-12.177,M,4.2,0000*46"
