;GPS@@@
;Ver=1.1.0
;DIP=2009-00152-00
;Date=2024-May-21 22:05:22
;Offset_m=0.00,0.00,0.00
;Latency_s=0.00
;---------------------------------------------------------------------------------------------------------------------------------------------
traces,odo_tick,pos(m),time_elapsed(s),GPS
1,0,0.0,6.16554021835,"$GPGGA,204747.20,4029.0842174,N,10650.4564700,W,4,28,0.7,2071.247,M,-12.177,M,1.2,0000*44"
1,0,0.0,6.16603517532,"$GPGGA,204748.20,4029.0842174,N,10650.4564685,W,4,27,0.8,2071.251,M,-12.177,M,2.2,0000*43"
1,0,0.0,6.16644477844,"$GPGGA,204749.20,4029.0842174,N,10650.4564695,W,4,28,0.8,2071.242,M,-12.177,M,1.2,0000*4D"
2,0,0.0,6.16684818268,"$GPGGA,204750.20,4029.0842195,N,10650.4564718,W,4,28,0.8,2071.235,M,-12.177,M,2.2,0000*4D"
2,0,0.0,6.16724777222,"$GPGGA,204751.20,4029.0842192,N,10650.4564719,W,4,28,0.8,2071.242,M,-12.177,M,1.2,0000*49"
2,0,0.0,6.16771697998,"$GPGGA,204752.20,4029.0842215,N,10650.4564739,W,4,28,0.8,2071.239,M,-12.177,M,2.2,0000*4B"
7,0,0.0,7.11908912659,"$GPGGA,204753.20,4029.0840077,N,10650.4562267,W,4,28,0.8,2071.254,M,-12.177,M,1.2,0000*4E"
19,0,0.0,8.1770362854,"$GPGGA,204754.20,4029.0834858,N,10650.4557714,W,4,29,0.8,2071.257,M,-12.177,M,2.2,0000*49"
31,0,0.0,9.09072780609,"$GPGGA,204755.20,4029.0829620,N,10650.4553344,W,4,28,0.8,2071.289,M,-12.177,M,1.2,0000*41"
44,0,0.0,10.1118135452,"$GPGGA,204756.20,4029.0824263,N,10650.4548844,W,4,28,0.8,2071.259,M,-12.177,M,2.2,0000*43"
56,0,0.0,11.1653318405,"$GPGGA,204757.20,4029.0818952,N,10650.4544713,W,4,28,0.8,2071.279,M,-12.177,M,1.2,0000*44"
68,0,0.0,12.0914430618,"$GPGGA,204758.20,4029.0813165,N,10650.4539329,W,4,29,0.8,2071.299,M,-12.177,M,2.2,0000*47"
80,0,0.0,13.1241960526,"$GPGGA,204759.20,4029.0807781,N,10650.4534690,W,4,29,0.8,2071.344,M,-12.177,M,1.2,0000*47"
92,0,0.0,14.176817894,"$GPGGA,204800.20,4029.0802093,N,10650.4529621,W,4,30,0.8,2071.334,M,-12.177,M,2.2,0000*4F"
103,0,0.0,15.1162281036,"$GPGGA,204801.20,4029.0797348,N,10650.4525593,W,4,30,0.8,2071.366,M,-12.177,M,1.2,0000*4A"
113,0,0.0,16.063577652,"$GPGGA,204802.20,4029.0793453,N,10650.4521928,W,4,29,0.9,2071.430,M,-12.177,M,2.2,0000*46"
126,0,0.0,17.1499042511,"$GPGGA,204803.20,4029.0788148,N,10650.4515910,W,4,29,0.9,2071.384,M,-12.177,M,1.2,0000*45"
138,0,0.0,18.0625686646,"$GPGGA,204804.20,4029.0781976,N,10650.4511361,W,4,30,0.8,2071.333,M,-12.177,M,2.2,0000*40"
149,0,0.0,19.1180915833,"$GPGGA,204805.20,4029.0776722,N,10650.4507628,W,4,30,0.8,2071.322,M,-12.177,M,3.2,0000*48"
160,0,0.0,20.0496807098,"$GPGGA,204806.20,4029.0771405,N,10650.4503026,W,4,30,0.8,2071.263,M,-12.177,M,4.2,0000*45"
172,0,0.0,21.1192874908,"$GPGGA,204807.20,4029.0766405,N,10650.4498277,W,4,30,0.8,2071.198,M,-12.177,M,5.2,0000*41"
182,0,0.0,22.0590362549,"$GPGGA,204808.20,4029.0762371,N,10650.4494378,W,4,30,0.8,2071.167,M,-12.177,M,6.2,0000*4F"
191,0,0.0,23.0907230377,"$GPGGA,204809.20,4029.0758545,N,10650.4491090,W,4,30,0.8,2071.143,M,-12.177,M,1.2,0000*47"
196,0,0.0,24.1104545593,"$GPGGA,204810.20,4029.0755629,N,10650.4488690,W,4,30,0.8,2071.128,M,-12.177,M,2.2,0000*4B"
200,0,0.0,25.1198101044,"$GPGGA,204811.20,4029.0753836,N,10650.4486828,W,4,30,0.7,2071.154,M,-12.177,M,1.2,0000*48"
204,0,0.0,26.0412635803,"$GPGGA,204812.20,4029.0752048,N,10650.4485306,W,4,30,0.7,2071.143,M,-12.177,M,2.2,0000*4A"
209,0,0.0,27.0777397156,"$GPGGA,204813.20,4029.0749880,N,10650.4483461,W,4,30,0.7,2071.119,M,-12.177,M,1.2,0000*41"
217,0,0.0,28.1005268097,"$GPGGA,204814.20,4029.0745947,N,10650.4480188,W,4,30,0.7,2071.077,M,-12.177,M,2.2,0000*4B"
219,0,0.0,29.1241092682,"$GPGGA,204815.20,4029.0744995,N,10650.4479416,W,4,30,0.7,2071.061,M,-12.177,M,1.2,0000*44"
226,0,0.0,30.0925998688,"$GPGGA,204816.20,4029.0741838,N,10650.4477565,W,4,30,0.7,2071.013,M,-12.177,M,2.2,0000*49"
235,0,0.0,31.1144065857,"$GPGGA,204817.20,4029.0737341,N,10650.4473971,W,4,30,0.7,2070.834,M,-12.177,M,3.2,0000*4C"
236,0,0.0,42.0002708435,"$GPGGA,204818.20,4029.0736258,N,10650.4473028,W,4,29,0.7,2070.782,M,-12.177,M,4.2,0000*43"
236,0,0.0,42.0005455017,"$GPGGA,204819.20,4029.0736297,N,10650.4473054,W,4,29,0.7,2070.768,M,-12.177,M,1.2,0000*4B"
236,0,0.0,42.0007705688,"$GPGGA,204820.20,4029.0736311,N,10650.4473085,W,4,30,0.7,2070.761,M,-12.177,M,2.2,0000*40"
236,0,0.0,42.0009727478,"$GPGGA,204821.20,4029.0736335,N,10650.4473108,W,4,30,0.7,2070.757,M,-12.177,M,3.2,0000*47"
236,0,0.0,42.0011787415,"$GPGGA,204822.20,4029.0736361,N,10650.4473147,W,4,30,0.7,2070.746,M,-12.177,M,4.2,0000*49"
236,0,0.0,42.0013771057,"$GPGGA,204823.20,4029.0736397,N,10650.4473210,W,4,30,0.7,2070.730,M,-12.177,M,1.2,0000*44"
236,0,0.0,42.0015792847,"$GPGGA,204824.20,4029.0738725,N,10650.4472552,W,1,30,0.5,2069.095,M,-12.177,M,2.2,*44"
236,0,0.0,42.0017814636,"$GPGGA,204825.20,4029.0734473,N,10650.4480150,W,1,29,0.8,2070.015,M,-12.177,M,1.2,*44"
236,0,0.0,42.0019798279,"$GPGGA,204826.20,4029.0736110,N,10650.4472813,W,4,29,0.8,2070.825,M,-12.177,M,2.2,0000*4B"
236,0,0.0,42.0021820068,"$GPGGA,204827.20,4029.0736116,N,10650.4472837,W,4,29,0.8,2070.822,M,-12.177,M,3.2,0000*4C"
236,0,0.0,42.0023841858,"$GPGGA,204828.20,4029.0736134,N,10650.4472889,W,4,29,0.8,2070.811,M,-12.177,M,4.2,0000*41"
