;GPS@@@
;Ver=1.1.0
;DIP=2009-00152-00
;Date=2024-May-21 20:39:43
;Offset_m=0.00,0.00,0.00
;Latency_s=0.00
;---------------------------------------------------------------------------------------------------------------------------------------------
traces,odo_tick,pos(m),time_elapsed(s),GPS
1,0,0.0,2.62632489204,"$GPGGA,192208.20,4029.0856151,N,10650.4463933,W,4,25,0.7,2069.938,M,-12.177,M,2.2,0000*48"
2,0,0.0,2.62685608864,"$GPGGA,192209.20,4029.0856136,N,10650.4463942,W,4,24,0.8,2069.950,M,-12.177,M,1.2,0000*4D"
7,0,0.0,3.66912102699,"$GPGGA,192210.20,4029.0854735,N,10650.4466360,W,4,24,0.8,2069.934,M,-12.177,M,2.2,0000*4C"
16,0,0.0,4.70315790176,"$GPGGA,192211.20,4029.0851944,N,10650.4471428,W,4,24,0.8,2069.949,M,-12.177,M,1.2,0000*44"
25,0,0.0,5.76373386383,"$GPGGA,192212.20,4029.0849117,N,10650.4476779,W,4,24,0.8,2069.982,M,-12.177,M,2.2,0000*44"
35,0,0.0,6.68370294571,"$GPGGA,192213.20,4029.0846177,N,10650.4481956,W,4,23,0.9,2070.067,M,-12.177,M,1.2,0000*48"
45,0,0.0,7.72742986679,"$GPGGA,192214.20,4029.0843697,N,10650.4486970,W,4,23,0.9,2070.116,M,-12.177,M,2.2,0000*44"
53,0,0.0,8.66774272919,"$GPGGA,192215.20,4029.0840816,N,10650.4492659,W,4,24,0.9,2070.213,M,-12.177,M,1.2,0000*42"
62,0,0.0,9.71332454681,"$GPGGA,192216.20,4029.0838113,N,10650.4497978,W,4,24,0.9,2070.279,M,-12.177,M,2.2,0000*44"
70,0,0.0,10.7439260483,"$GPGGA,192217.20,4029.0836036,N,10650.4502142,W,4,25,0.9,2070.360,M,-12.177,M,1.2,0000*4A"
79,0,0.0,11.6634941101,"$GPGGA,192218.20,4029.0833875,N,10650.4506840,W,4,25,0.9,2070.477,M,-12.177,M,2.2,0000*42"
87,0,0.0,12.6930379868,"$GPGGA,192219.20,4029.0831981,N,10650.4511331,W,4,25,0.9,2070.576,M,-12.177,M,1.2,0000*43"
95,0,0.0,13.7303829193,"$GPGGA,192220.20,4029.0829776,N,10650.4516043,W,4,24,0.9,2070.701,M,-12.177,M,2.2,0000*47"
105,0,0.0,14.670923233,"$GPGGA,192221.20,4029.0826729,N,10650.4522213,W,4,24,0.9,2070.878,M,-12.177,M,1.2,0000*41"
113,0,0.0,15.6921539307,"$GPGGA,192222.20,4029.0824668,N,10650.4527047,W,4,25,0.9,2071.002,M,-12.177,M,2.2,0000*44"
121,0,0.0,16.7237567902,"$GPGGA,192223.20,4029.0822095,N,10650.4531598,W,4,25,0.9,2071.113,M,-12.177,M,1.2,0000*45"
129,0,0.0,17.6483345032,"$GPGGA,192224.20,4029.0819398,N,10650.4536238,W,4,25,0.9,2071.205,M,-12.177,M,2.2,0000*49"
138,0,0.0,18.6790542603,"$GPGGA,192225.20,4029.0816748,N,10650.4541552,W,4,25,0.9,2071.305,M,-12.177,M,1.2,0000*47"
149,0,0.0,19.7057781219,"$GPGGA,192226.20,4029.0813528,N,10650.4547869,W,4,25,0.9,2071.398,M,-12.177,M,2.2,0000*41"
157,0,0.0,20.7270851135,"$GPGGA,192227.20,4029.0811164,N,10650.4552738,W,4,25,0.9,2071.489,M,-12.177,M,1.2,0000*45"
166,0,0.0,21.6613330841,"$GPGGA,192228.20,4029.0808500,N,10650.4558067,W,4,25,0.9,2071.580,M,-12.177,M,2.2,0000*48"
173,0,0.0,22.679813385,"$GPGGA,192229.20,4029.0806573,N,10650.4561466,W,4,25,0.9,2071.665,M,-12.177,M,1.2,0000*47"
180,0,0.0,23.7084636688,"$GPGGA,192230.20,4029.0804180,N,10650.4564686,W,4,25,0.9,2071.763,M,-12.177,M,2.2,0000*48"
186,0,0.0,24.7255058289,"$GPGGA,192231.20,4029.0802388,N,10650.4568984,W,4,25,0.9,2071.871,M,-12.177,M,1.2,0000*4B"
192,0,0.0,25.6687870026,"$GPGGA,192232.20,4029.0800169,N,10650.4572551,W,4,23,0.9,2071.976,M,-12.177,M,2.2,0000*4B"
198,0,0.0,26.7078819275,"$GPGGA,192233.20,4029.0798524,N,10650.4574826,W,4,23,1.0,2072.065,M,-12.177,M,1.2,0000*41"
205,0,0.0,27.6352081299,"$GPGGA,192234.20,4029.0796766,N,10650.4578135,W,1,23,1.0,2072.190,M,-12.177,M,2.2,*46"
211,0,0.0,28.6734657288,"$GPGGA,192235.20,4029.0794012,N,10650.4581203,W,1,24,0.9,2072.357,M,-12.177,M,3.2,*46"
218,0,0.0,29.6934452057,"$GPGGA,192236.20,4029.0792591,N,10650.4585814,W,4,24,0.9,2072.501,M,-12.177,M,4.2,0000*42"
225,0,0.0,30.6129455566,"$GPGGA,192237.20,4029.0790767,N,10650.4589078,W,4,25,0.8,2072.649,M,-12.177,M,1.2,0000*4E"
233,0,0.0,31.6237564087,"$GPGGA,192238.20,4029.0788675,N,10650.4594632,W,4,26,0.8,2072.864,M,-12.177,M,2.2,0000*4F"
239,0,0.0,32.6351318359,"$GPGGA,192239.20,4029.0787374,N,10650.4598000,W,4,26,0.8,2073.010,M,-12.177,M,1.2,0000*47"
245,0,0.0,33.6479034424,"$GPGGA,192240.20,4029.0785373,N,10650.4602374,W,4,24,0.8,2073.175,M,-12.177,M,2.2,0000*4F"
250,0,0.0,34.6666984558,"$GPGGA,192241.20,4029.0784453,N,10650.4604885,W,4,25,0.8,2073.304,M,-12.177,M,1.2,0000*4F"
255,0,0.0,35.6850547791,"$GPGGA,192242.20,4029.0783338,N,10650.4607926,W,4,26,0.8,2073.388,M,-12.177,M,2.2,0000*4E"
259,0,0.0,36.7263832092,"$GPGGA,192243.20,4029.0782202,N,10650.4610135,W,4,26,0.9,2073.496,M,-12.177,M,1.2,0000*40"
265,0,0.0,37.6669921875,"$GPGGA,192244.20,4029.0780988,N,10650.4612674,W,4,25,0.9,2073.630,M,-12.177,M,2.2,0000*42"
270,0,0.0,38.9553070068,"$GPGGA,192245.20,4029.0778801,N,10650.4616534,W,4,25,0.9,2073.807,M,-12.177,M,1.2,0000*4E"
270,0,0.0,38.9555625916,"$GPGGA,192246.20,4029.0778519,N,10650.4616838,W,4,25,0.9,2073.810,M,-12.177,M,2.2,0000*4D"
