;GPS@@@
;Ver=1.1.0
;DIP=2009-00152-00
;Date=2024-May-21 20:46:30
;Offset_m=0.00,0.00,0.00
;Latency_s=0.00
;---------------------------------------------------------------------------------------------------------------------------------------------
traces,odo_tick,pos(m),time_elapsed(s),GPS
1,0,0.0,1.3380869627,"$GPGGA,192855.20,4029.0803296,N,10650.4633307,W,4,25,0.8,2073.293,M,-12.177,M,3.2,0000*47"
7,0,0.0,2.30829691887,"$GPGGA,192856.20,4029.0804939,N,10650.4629774,W,4,25,0.8,2073.200,M,-12.177,M,4.2,0000*4B"
14,0,0.0,3.32022190094,"$GPGGA,192857.20,4029.0807117,N,10650.4625284,W,4,26,0.8,2073.041,M,-12.177,M,1.2,0000*4A"
21,0,0.0,4.36817121506,"$GPGGA,192858.20,4029.0808908,N,10650.4621484,W,4,27,0.7,2072.919,M,-12.177,M,2.2,0000*46"
28,0,0.0,5.39518499374,"$GPGGA,192859.20,4029.0810870,N,10650.4617454,W,4,26,0.8,2072.797,M,-12.177,M,1.2,0000*4D"
36,0,0.0,6.349796772,"$GPGGA,192900.20,4029.0812991,N,10650.4613198,W,4,26,0.8,2072.622,M,-12.177,M,2.2,0000*41"
44,0,0.0,7.37495994568,"$GPGGA,192901.20,4029.0815313,N,10650.4608677,W,4,26,0.8,2072.483,M,-12.177,M,1.2,0000*41"
48,0,0.0,8.37803936005,"$GPGGA,192902.20,4029.0817133,N,10650.4605966,W,4,26,0.8,2072.398,M,-12.177,M,2.2,0000*4C"
50,0,0.0,9.32435131073,"$GPGGA,192903.20,4029.0817488,N,10650.4605545,W,4,25,0.9,2072.368,M,-12.177,M,3.2,0000*49"
57,0,0.0,10.3543138504,"$GPGGA,192904.20,4029.0818956,N,10650.4601544,W,4,25,0.9,2072.211,M,-12.177,M,4.2,0000*42"
65,0,0.0,11.4187116623,"$GPGGA,192905.20,4029.0821657,N,10650.4597004,W,4,24,0.9,2072.027,M,-12.177,M,5.2,0000*4D"
74,0,0.0,12.3521318436,"$GPGGA,192906.20,4029.0823988,N,10650.4591841,W,4,26,0.8,2071.879,M,-12.177,M,6.2,0000*4E"
83,0,0.0,13.3716554642,"$GPGGA,192907.20,4029.0826157,N,10650.4587023,W,4,26,0.8,2071.784,M,-12.177,M,1.2,0000*41"
92,0,0.0,14.3459730148,"$GPGGA,192908.20,4029.0828443,N,10650.4581165,W,4,26,0.8,2071.651,M,-12.177,M,2.2,0000*4F"
102,0,0.0,15.411190033,"$GPGGA,192909.20,4029.0830841,N,10650.4575546,W,4,26,0.8,2071.529,M,-12.177,M,3.2,0000*4A"
111,0,0.0,16.3601837158,"$GPGGA,192910.20,4029.0835652,N,10650.4567495,W,1,27,0.5,2071.944,M,-12.177,M,4.2,*4E"
122,0,0.0,17.3858261108,"$GPGGA,192911.20,4029.0841599,N,10650.4569388,W,1,26,0.8,2071.695,M,-12.177,M,1.2,*47"
132,0,0.0,18.4286613464,"$GPGGA,192912.20,4029.0838944,N,10650.4557911,W,4,25,0.9,2071.284,M,-12.177,M,2.2,0000*41"
142,0,0.0,19.3598594666,"$GPGGA,192913.20,4029.0841661,N,10650.4551801,W,4,25,0.9,2071.166,M,-12.177,M,3.2,0000*4E"
153,0,0.0,20.3788528442,"$GPGGA,192914.20,4029.0844523,N,10650.4545425,W,4,25,0.9,2070.992,M,-12.177,M,4.2,0000*43"
162,0,0.0,21.418214798,"$GPGGA,192915.20,4029.0847016,N,10650.4539854,W,4,25,0.9,2070.869,M,-12.177,M,1.2,0000*43"
171,0,0.0,22.3339958191,"$GPGGA,192916.20,4029.0849026,N,10650.4534949,W,4,25,0.9,2070.778,M,-12.177,M,2.2,0000*41"
180,0,0.0,23.3651561737,"$GPGGA,192917.20,4029.0851797,N,10650.4529107,W,4,25,0.9,2070.647,M,-12.177,M,1.2,0000*44"
188,0,0.0,24.3838367462,"$GPGGA,192918.20,4029.0853931,N,10650.4524638,W,4,26,0.8,2070.572,M,-12.177,M,2.2,0000*49"
197,0,0.0,25.4150238037,"$GPGGA,192919.20,4029.0856040,N,10650.4520014,W,4,24,0.9,2070.507,M,-12.177,M,1.2,0000*4C"
205,0,0.0,26.3442955017,"$GPGGA,192920.20,4029.0858106,N,10650.4515627,W,4,25,0.9,2070.469,M,-12.177,M,2.2,0000*40"
211,0,0.0,27.3866176605,"$GPGGA,192921.20,4029.0859967,N,10650.4511532,W,4,25,0.9,2070.409,M,-12.177,M,3.2,0000*4B"
217,0,0.0,28.3300743103,"$GPGGA,192922.20,4029.0861507,N,10650.4508453,W,4,25,0.9,2070.364,M,-12.177,M,4.2,0000*4C"
224,0,0.0,29.3440494537,"$GPGGA,192923.20,4029.0863601,N,10650.4504597,W,4,25,0.9,2070.312,M,-12.177,M,1.2,0000*4B"
230,0,0.0,30.3832092285,"$GPGGA,192924.20,4029.0865562,N,10650.4501131,W,4,25,0.9,2070.291,M,-12.177,M,2.2,0000*48"
237,0,0.0,31.4108524323,"$GPGGA,192925.20,4029.0867825,N,10650.4496976,W,4,25,0.9,2070.253,M,-12.177,M,3.2,0000*4E"
243,0,0.0,32.3181152344,"$GPGGA,192926.20,4029.0869816,N,10650.4493715,W,4,25,0.9,2070.224,M,-12.177,M,4.2,0000*4A"
245,0,0.0,33.3401260376,"$GPGGA,192927.20,4029.0870617,N,10650.4492442,W,4,25,0.9,2070.223,M,-12.177,M,5.2,0000*4A"
249,0,0.0,34.3580131531,"$GPGGA,192928.20,4029.0874440,N,10650.4488893,W,1,25,0.6,2070.334,M,-12.177,M,6.2,*44"
253,0,0.0,35.3719596863,"$GPGGA,192929.20,4029.0876658,N,10650.4487118,W,1,25,0.6,2070.256,M,-12.177,M,1.2,*4B"
259,0,0.0,36.3946533203,"$GPGGA,192930.20,4029.0878630,N,10650.4483837,W,1,25,0.6,2070.042,M,-12.177,M,2.2,*47"
264,0,0.0,37.3278694153,"$GPGGA,192931.20,4029.0883419,N,10650.4494946,W,1,24,0.9,2070.530,M,-12.177,M,1.2,*47"
267,0,0.0,38.2032928467,"$GPGGA,192932.20,4029.0878906,N,10650.4480452,W,4,24,0.8,2070.099,M,-12.177,M,2.2,0000*4F"
