;GPS@@@
;Ver=1.1.0
;DIP=2009-00152-00
;Date=2024-May-21 21:44:26
;Offset_m=0.00,0.00,0.00
;Latency_s=0.00
;---------------------------------------------------------------------------------------------------------------------------------------------
traces,odo_tick,pos(m),time_elapsed(s),GPS
1,0,0.0,16.5676631927,"$GPGGA,202651.20,4029.0791912,N,10650.4408699,W,4,30,0.9,2069.517,M,-12.177,M,7.2,0000*4D"
1,0,0.0,16.5681476593,"$GPGGA,202652.20,4029.0791928,N,10650.4408704,W,4,30,0.9,2069.515,M,-12.177,M,8.2,0000*4F"
1,0,0.0,16.5685901642,"$GPGGA,202653.20,4029.0791953,N,10650.4408752,W,4,30,0.9,2069.504,M,-12.177,M,9.2,0000*40"
1,0,0.0,16.5689964294,"$GPGGA,202654.20,4029.0791246,N,10650.4403709,W,1,30,0.5,2070.446,M,-12.177,M,0.0,*40"
1,0,0.0,16.56939888,"$GPGGA,202655.20,4029.0791876,N,10650.4403399,W,1,30,0.5,2070.170,M,-12.177,M,0.0,*45"
1,0,0.0,16.5698223114,"$GPGGA,202656.20,4029.0792438,N,10650.4403617,W,1,30,0.5,2069.785,M,-12.177,M,0.0,*44"
1,0,0.0,16.5702323914,"$GPGGA,202657.20,4029.0797756,N,10650.4420644,W,1,30,1.9,2069.599,M,-12.177,M,1.2,*4D"
1,0,0.0,16.5706386566,"$GPGGA,202658.20,4029.0791570,N,10650.4408199,W,4,30,1.9,2069.612,M,-12.177,M,2.2,0000*49"
2,0,0.0,16.5710601807,"$GPGGA,202659.20,4029.0791580,N,10650.4408202,W,4,30,1.9,2069.614,M,-12.177,M,3.2,0000*41"
2,0,0.0,16.5714645386,"$GPGGA,202700.20,4029.0791576,N,10650.4408203,W,4,30,1.9,2069.595,M,-12.177,M,4.2,0000*49"
2,0,0.0,16.5718650818,"$GPGGA,202701.20,4029.0791541,N,10650.4408140,W,4,30,1.6,2069.598,M,-12.177,M,1.2,0000*4F"
2,0,0.0,16.5722904205,"$GPGGA,202702.20,4029.0791553,N,10650.4408156,W,4,30,1.6,2069.600,M,-12.177,M,2.2,0000*49"
2,0,0.0,16.5727615356,"$GPGGA,202703.20,4029.0791579,N,10650.4408217,W,4,30,1.6,2069.610,M,-12.177,M,3.2,0000*46"
2,0,0.0,16.5731716156,"$GPGGA,202704.20,4029.0791574,N,10650.4408178,W,4,30,1.6,2069.597,M,-12.177,M,4.2,0000*4D"
2,0,0.0,16.5742797852,"$GPGGA,202705.20,4029.0791601,N,10650.4408206,W,4,30,1.6,2069.591,M,-12.177,M,1.2,0000*44"
2,0,0.0,16.5747299194,"$GPGGA,202706.20,4029.0791580,N,10650.4408348,W,4,30,1.6,2069.604,M,-12.177,M,2.2,0000*4A"
9,0,0.0,17.5540561676,"$GPGGA,202707.20,4029.0789741,N,10650.4411992,W,4,30,1.6,2069.607,M,-12.177,M,1.2,0000*48"
19,0,0.0,18.5961017609,"$GPGGA,202708.20,4029.0787251,N,10650.4417673,W,4,30,1.6,2069.659,M,-12.177,M,2.2,0000*43"
28,0,0.0,19.5257492065,"$GPGGA,202709.20,4029.0784811,N,10650.4423251,W,4,30,1.6,2069.717,M,-12.177,M,3.2,0000*46"
38,0,0.0,20.5810127258,"$GPGGA,202710.20,4029.0780577,N,10650.4422422,W,1,30,0.5,2072.575,M,-12.177,M,4.2,*48"
48,0,0.0,21.5053005219,"$GPGGA,202711.20,4029.0778850,N,10650.4429616,W,1,30,0.5,2072.269,M,-12.177,M,5.2,*43"
57,0,0.0,22.5359039307,"$GPGGA,202712.20,4029.0777577,N,10650.4436140,W,1,30,0.5,2071.791,M,-12.177,M,6.2,*4F"
65,0,0.0,23.551940918,"$GPGGA,202713.20,4029.0776042,N,10650.4441029,W,1,30,0.5,2071.470,M,-12.177,M,7.2,*4F"
75,0,0.0,24.4993247986,"$GPGGA,202714.20,4029.0774239,N,10650.4446980,W,1,30,0.5,2071.281,M,-12.177,M,8.2,*4E"
85,0,0.0,25.5333938599,"$GPGGA,202715.20,4029.0774267,N,10650.4467050,W,1,29,1.6,2070.457,M,-12.177,M,1.2,*4C"
94,0,0.0,26.5836143494,"$GPGGA,202716.20,4029.0769146,N,10650.4463665,W,4,29,1.6,2070.637,M,-12.177,M,2.2,0000*45"
105,0,0.0,27.531211853,"$GPGGA,202717.20,4029.0766878,N,10650.4471613,W,4,30,1.6,2070.800,M,-12.177,M,3.2,0000*4E"
117,0,0.0,28.5504302979,"$GPGGA,202718.20,4029.0763963,N,10650.4479451,W,4,29,1.6,2070.923,M,-12.177,M,4.2,0000*4C"
131,0,0.0,29.5203533173,"$GPGGA,202719.20,4029.0760470,N,10650.4487344,W,4,30,1.6,2071.071,M,-12.177,M,5.2,0000*45"
142,0,0.0,30.5485916138,"$GPGGA,202720.20,4029.0757751,N,10650.4493666,W,4,30,1.6,2071.167,M,-12.177,M,6.2,0000*4E"
152,0,0.0,31.4890136719,"$GPGGA,202721.20,4029.0755137,N,10650.4499668,W,4,30,1.6,2071.341,M,-12.177,M,1.2,0000*4E"
162,0,0.0,32.6130599976,"$GPGGA,202722.20,4029.0752687,N,10650.4505247,W,4,30,1.6,2071.435,M,-12.177,M,2.2,0000*4C"
174,0,0.0,33.5578193665,"$GPGGA,202723.20,4029.0749739,N,10650.4512041,W,4,28,0.9,2071.545,M,-12.177,M,1.2,0000*43"
186,0,0.0,34.5966644287,"$GPGGA,202724.20,4029.0746358,N,10650.4519571,W,4,28,0.9,2071.657,M,-12.177,M,2.2,0000*46"
199,0,0.0,35.5241546631,"$GPGGA,202725.20,4029.0743070,N,10650.4526321,W,4,28,0.9,2071.848,M,-12.177,M,1.2,0000*47"
210,0,0.0,36.5467834473,"$GPGGA,202726.20,4029.0740415,N,10650.4532364,W,4,28,0.9,2072.003,M,-12.177,M,2.2,0000*43"
221,0,0.0,37.5622329712,"$GPGGA,202727.20,4029.0737173,N,10650.4539042,W,4,28,0.9,2072.235,M,-12.177,M,3.2,0000*4D"
231,0,0.0,38.6109428406,"$GPGGA,202728.20,4029.0734178,N,10650.4545194,W,4,28,0.9,2072.438,M,-12.177,M,4.2,0000*47"
239,0,0.0,39.5458679199,"$GPGGA,202729.20,4029.0731610,N,10650.4550119,W,4,28,0.9,2072.641,M,-12.177,M,1.2,0000*42"
245,0,0.0,40.5862998962,"$GPGGA,202730.20,4029.0730577,N,10650.4553313,W,4,28,0.9,2072.782,M,-12.177,M,2.2,0000*4F"
253,0,0.0,41.6207046509,"$GPGGA,202731.20,4029.0727950,N,10650.4558913,W,4,27,0.9,2072.958,M,-12.177,M,1.2,0000*45"
262,0,0.0,42.5610923767,"$GPGGA,202732.20,4029.0725441,N,10650.4564206,W,4,27,0.9,2073.086,M,-12.177,M,2.2,0000*41"
271,0,0.0,43.6131095886,"$GPGGA,202733.20,4029.0723837,N,10650.4569303,W,4,27,0.8,2073.274,M,-12.177,M,1.2,0000*4F"
281,0,0.0,44.5182991028,"$GPGGA,202734.20,4029.0721971,N,10650.4574758,W,4,26,0.8,2073.496,M,-12.177,M,2.2,0000*47"
282,0,0.0,45.3399467468,"$GPGGA,202735.20,4029.0721033,N,10650.4577084,W,4,27,0.9,2073.581,M,-12.177,M,1.2,0000*48"
