;GPS@@@
;Ver=1.1.0
;DIP=2009-00152-00
;Date=2024-May-21 19:43:15
;Offset_m=0.00,0.00,0.00
;Latency_s=0.00
;---------------------------------------------------------------------------------------------------------------------------------------------
traces,odo_tick,pos(m),time_elapsed(s),GPS
1,0,0.0,3.12884688377,"$GPGGA,182540.20,4029.0764531,N,10650.4443513,W,4,28,1.0,2070.151,M,-12.177,M,4.2,0000*40"
1,0,0.0,3.12947511673,"$GPGGA,182541.20,4029.0764541,N,10650.4443530,W,4,28,1.0,2070.143,M,-12.177,M,1.2,0000*41"
2,0,0.0,3.12992596626,"$GPGGA,182542.20,4029.0764697,N,10650.4443650,W,4,28,1.0,2070.140,M,-12.177,M,2.2,0000*4F"
5,0,0.0,4.14293718338,"$GPGGA,182543.20,4029.0765996,N,10650.4444443,W,4,28,1.0,2070.140,M,-12.177,M,3.2,0000*47"
7,0,0.0,5.18817520142,"$GPGGA,182544.20,4029.0766641,N,10650.4445100,W,4,28,1.0,2070.154,M,-12.177,M,4.2,0000*47"
15,0,0.0,6.21641778946,"$GPGGA,182545.20,4029.0769946,N,10650.4447966,W,4,28,1.0,2070.233,M,-12.177,M,5.2,0000*48"
22,0,0.0,7.12749004364,"$GPGGA,182546.20,4029.0776054,N,10650.4449319,W,1,28,0.6,2069.587,M,-12.177,M,6.2,*42"
28,0,0.0,8.16275024414,"$GPGGA,182547.20,4029.0779279,N,10650.4450644,W,1,28,0.6,2069.475,M,-12.177,M,7.2,*49"
37,0,0.0,9.18911075592,"$GPGGA,182548.20,4029.0780554,N,10650.4456956,W,4,28,1.0,2070.330,M,-12.177,M,2.2,0000*4B"
45,0,0.0,10.2294635773,"$GPGGA,182549.20,4029.0784375,N,10650.4460343,W,4,28,1.0,2070.384,M,-12.177,M,3.2,0000*4E"
55,0,0.0,11.159570694,"$GPGGA,182550.20,4029.0788995,N,10650.4464300,W,4,28,1.0,2070.436,M,-12.177,M,4.2,0000*44"
63,0,0.0,12.2284650803,"$GPGGA,182551.20,4029.0792553,N,10650.4467991,W,4,28,1.0,2070.456,M,-12.177,M,1.2,0000*4A"
71,0,0.0,13.1516399384,"$GPGGA,182552.20,4029.0796832,N,10650.4472048,W,4,28,1.0,2070.450,M,-12.177,M,2.2,0000*4B"
80,0,0.0,14.1730136871,"$GPGGA,182553.20,4029.0800152,N,10650.4476074,W,4,28,1.0,2070.458,M,-12.177,M,1.2,0000*45"
88,0,0.0,15.2413187027,"$GPGGA,182554.20,4029.0803603,N,10650.4480376,W,4,28,1.0,2070.498,M,-12.177,M,2.2,0000*45"
97,0,0.0,16.1657791138,"$GPGGA,182555.20,4029.0807732,N,10650.4485189,W,4,28,1.0,2070.456,M,-12.177,M,3.2,0000*47"
104,0,0.0,17.1942195892,"$GPGGA,182556.20,4029.0812379,N,10650.4486848,W,1,28,0.6,2070.099,M,-12.177,M,4.2,*4E"
113,0,0.0,18.1272926331,"$GPGGA,182557.20,4029.0816833,N,10650.4490590,W,1,28,0.6,2069.923,M,-12.177,M,5.2,*40"
120,0,0.0,19.1432247162,"$GPGGA,182558.20,4029.0816761,N,10650.4495708,W,4,28,1.0,2070.554,M,-12.177,M,2.2,0000*40"
127,0,0.0,20.1759548187,"$GPGGA,182559.20,4029.0819196,N,10650.4498552,W,4,27,1.0,2070.590,M,-12.177,M,3.2,0000*46"
136,0,0.0,21.2164115906,"$GPGGA,182600.20,4029.0823122,N,10650.4502417,W,4,28,1.0,2070.590,M,-12.177,M,4.2,0000*45"
144,0,0.0,22.1718273163,"$GPGGA,182601.20,4029.0827169,N,10650.4506336,W,4,28,1.0,2070.612,M,-12.177,M,1.2,0000*43"
153,0,0.0,23.1931419373,"$GPGGA,182602.20,4029.0831252,N,10650.4510634,W,4,28,1.0,2070.574,M,-12.177,M,2.2,0000*4C"
162,0,0.0,24.1385803223,"$GPGGA,182603.20,4029.0835045,N,10650.4515077,W,4,28,1.0,2070.567,M,-12.177,M,1.2,0000*48"
167,0,0.0,25.1392097473,"$GPGGA,182604.20,4029.0837920,N,10650.4517683,W,4,28,1.0,2070.571,M,-12.177,M,2.2,0000*4C"
170,0,0.0,26.166885376,"$GPGGA,182605.20,4029.0839110,N,10650.4518798,W,4,28,1.2,2070.541,M,-12.177,M,1.2,0000*4E"
179,0,0.0,27.2102966309,"$GPGGA,182606.20,4029.0842255,N,10650.4522357,W,4,28,1.2,2070.578,M,-12.177,M,2.2,0000*44"
187,0,0.0,28.1631069183,"$GPGGA,182607.20,4029.0845369,N,10650.4525741,W,4,28,1.2,2070.616,M,-12.177,M,1.2,0000*40"
193,0,0.0,29.210231781,"$GPGGA,182608.20,4029.0847775,N,10650.4528804,W,4,28,1.2,2070.641,M,-12.177,M,2.2,0000*46"
200,0,0.0,30.1258163452,"$GPGGA,182609.20,4029.0850598,N,10650.4532259,W,4,28,1.2,2070.635,M,-12.177,M,1.2,0000*49"
209,0,0.0,31.1580162048,"$GPGGA,182610.20,4029.0854404,N,10650.4535964,W,4,28,1.2,2070.684,M,-12.177,M,2.2,0000*4A"
214,0,0.0,32.1831932068,"$GPGGA,182611.20,4029.0856425,N,10650.4538468,W,4,28,1.2,2070.674,M,-12.177,M,1.2,0000*4A"
218,0,0.0,35.0207824707,"$GPGGA,182612.20,4029.0858659,N,10650.4540924,W,4,28,1.2,2070.675,M,-12.177,M,2.2,0000*46"
218,0,0.0,35.0212554932,"$GPGGA,182613.20,4029.0858971,N,10650.4540957,W,4,27,1.2,2070.684,M,-12.177,M,1.2,0000*44"
218,0,0.0,35.0216712952,"$GPGGA,182614.20,4029.0858941,N,10650.4540980,W,4,27,1.2,2070.683,M,-12.177,M,2.2,0000*4E"
