;GPS@@@
;Ver=1.1.0
;DIP=2009-00152-00
;Date=2024-May-21 21:52:18
;Offset_m=0.00,0.00,0.00
;Latency_s=0.00
;---------------------------------------------------------------------------------------------------------------------------------------------
traces,odo_tick,pos(m),time_elapsed(s),GPS
1,0,0.0,7.16332197189,"$GPGGA,203443.20,4029.0845404,N,10650.4458007,W,4,30,0.9,2069.961,M,-12.177,M,1.2,0000*4E"
1,0,0.0,7.16380500793,"$GPGGA,203444.20,4029.0845395,N,10650.4457972,W,4,30,0.9,2069.953,M,-12.177,M,2.2,0000*40"
1,0,0.0,7.16421222687,"$GPGGA,203445.20,4029.0845415,N,10650.4458027,W,4,30,0.9,2069.950,M,-12.177,M,1.2,0000*48"
1,0,0.0,7.16461992264,"$GPGGA,203446.20,4029.0845407,N,10650.4458015,W,4,30,0.9,2069.958,M,-12.177,M,2.2,0000*42"
2,0,0.0,7.16510820389,"$GPGGA,203447.20,4029.0845411,N,10650.4457991,W,4,30,0.9,2069.956,M,-12.177,M,1.2,0000*43"
2,0,0.0,7.16551589966,"$GPGGA,203448.20,4029.0845425,N,10650.4458027,W,4,30,0.9,2069.952,M,-12.177,M,2.2,0000*47"
2,0,0.0,7.16592502594,"$GPGGA,203449.20,4029.0845399,N,10650.4457983,W,4,30,0.9,2069.953,M,-12.177,M,1.2,0000*4C"
8,0,0.0,8.21037006378,"$GPGGA,203450.20,4029.0843557,N,10650.4461682,W,4,31,0.9,2069.994,M,-12.177,M,2.2,0000*44"
17,0,0.0,9.25935459137,"$GPGGA,203451.20,4029.0841334,N,10650.4466562,W,4,31,0.9,2070.011,M,-12.177,M,3.2,0000*43"
29,0,0.0,10.167673111,"$GPGGA,203452.20,4029.0837979,N,10650.4473170,W,4,30,1.0,2070.097,M,-12.177,M,4.2,0000*41"
40,0,0.0,11.2205638885,"$GPGGA,203453.20,4029.0835118,N,10650.4479374,W,4,31,0.9,2070.175,M,-12.177,M,1.2,0000*40"
50,0,0.0,12.1489782333,"$GPGGA,203454.20,4029.0832140,N,10650.4485617,W,4,31,0.9,2070.261,M,-12.177,M,2.2,0000*4B"
59,0,0.0,13.1680622101,"$GPGGA,203455.20,4029.0829970,N,10650.4491146,W,4,31,0.9,2070.320,M,-12.177,M,1.2,0000*4A"
69,0,0.0,14.2355422974,"$GPGGA,203456.20,4029.0827747,N,10650.4496555,W,4,30,0.9,2070.439,M,-12.177,M,2.2,0000*41"
76,0,0.0,15.1614580154,"$GPGGA,203457.20,4029.0825616,N,10650.4501289,W,4,31,0.9,2070.562,M,-12.177,M,1.2,0000*43"
85,0,0.0,16.1758384705,"$GPGGA,203458.20,4029.0823995,N,10650.4505338,W,4,30,0.9,2070.718,M,-12.177,M,2.2,0000*4C"
91,0,0.0,17.2037696838,"$GPGGA,203459.20,4029.0822187,N,10650.4510125,W,4,30,0.9,2070.837,M,-12.177,M,3.2,0000*4E"
101,0,0.0,18.1469631195,"$GPGGA,203500.20,4029.0820282,N,10650.4515577,W,4,30,0.9,2070.989,M,-12.177,M,4.2,0000*42"
110,0,0.0,19.1933097839,"$GPGGA,203501.20,4029.0818055,N,10650.4522745,W,4,29,0.9,2071.102,M,-12.177,M,1.2,0000*40"
117,0,0.0,20.2180328369,"$GPGGA,203502.20,4029.0816658,N,10650.4527278,W,4,29,0.9,2071.150,M,-12.177,M,2.2,0000*4C"
126,0,0.0,21.1400985718,"$GPGGA,203503.20,4029.0814091,N,10650.4532505,W,4,30,0.9,2071.256,M,-12.177,M,1.2,0000*4B"
134,0,0.0,22.1938209534,"$GPGGA,203504.20,4029.0812024,N,10650.4536564,W,4,29,0.9,2071.325,M,-12.177,M,2.2,0000*49"
144,0,0.0,23.1465816498,"$GPGGA,203505.20,4029.0809427,N,10650.4543101,W,4,29,0.9,2071.454,M,-12.177,M,1.2,0000*42"
155,0,0.0,24.1830940247,"$GPGGA,203506.20,4029.0806729,N,10650.4549329,W,4,29,0.9,2071.541,M,-12.177,M,2.2,0000*47"
162,0,0.0,25.2283287048,"$GPGGA,203507.20,4029.0804591,N,10650.4553663,W,4,30,0.9,2071.537,M,-12.177,M,1.2,0000*4F"
169,0,0.0,26.1962509155,"$GPGGA,203508.20,4029.0802853,N,10650.4557128,W,4,30,0.9,2071.695,M,-12.177,M,2.2,0000*41"
177,0,0.0,27.2457351685,"$GPGGA,203509.20,4029.0800115,N,10650.4561802,W,4,29,0.9,2071.780,M,-12.177,M,1.2,0000*43"
186,0,0.0,28.172498703,"$GPGGA,203510.20,4029.0798090,N,10650.4566853,W,4,30,0.9,2071.892,M,-12.177,M,2.2,0000*4D"
191,0,0.0,29.2276954651,"$GPGGA,203511.20,4029.0796587,N,10650.4569720,W,4,30,0.9,2071.991,M,-12.177,M,1.2,0000*44"
199,0,0.0,30.1729755402,"$GPGGA,203512.20,4029.0794787,N,10650.4574093,W,4,29,0.9,2072.130,M,-12.177,M,2.2,0000*4F"
207,0,0.0,31.2039661407,"$GPGGA,203513.20,4029.0792489,N,10650.4579732,W,4,29,0.9,2072.325,M,-12.177,M,1.2,0000*41"
214,0,0.0,32.2400436401,"$GPGGA,203514.20,4029.0790871,N,10650.4582723,W,4,29,0.9,2072.438,M,-12.177,M,2.2,0000*43"
220,0,0.0,33.1669578552,"$GPGGA,203515.20,4029.0789142,N,10650.4586652,W,4,27,0.9,2072.623,M,-12.177,M,1.2,0000*45"
228,0,0.0,34.177066803,"$GPGGA,203516.20,4029.0787434,N,10650.4590674,W,4,28,0.9,2072.825,M,-12.177,M,2.2,0000*4B"
235,0,0.0,35.2435913086,"$GPGGA,203517.20,4029.0785788,N,10650.4595520,W,4,28,0.9,2073.037,M,-12.177,M,1.2,0000*42"
242,0,0.0,36.1925315857,"$GPGGA,203518.20,4029.0784599,N,10650.4600025,W,4,28,0.9,2073.160,M,-12.177,M,2.2,0000*41"
250,0,0.0,37.1948165894,"$GPGGA,203519.20,4029.0783097,N,10650.4604459,W,4,27,0.9,2073.370,M,-12.177,M,1.2,0000*48"
258,0,0.0,38.2179069519,"$GPGGA,203520.20,4029.0781318,N,10650.4610094,W,4,28,0.9,2073.541,M,-12.177,M,2.2,0000*4C"
260,0,0.0,39.2278060913,"$GPGGA,203521.20,4029.0779906,N,10650.4612475,W,4,28,0.9,2073.663,M,-12.177,M,1.2,0000*46"
263,0,0.0,40.1573600769,"$GPGGA,203522.20,4029.0779520,N,10650.4612480,W,4,28,0.9,2073.703,M,-12.177,M,2.2,0000*43"
269,0,0.0,41.164264679,"$GPGGA,203523.20,4029.0777381,N,10650.4616898,W,4,27,0.9,2073.957,M,-12.177,M,3.2,0000*41"
270,0,0.0,43.5648193359,"$GPGGA,203524.20,4029.0777185,N,10650.4617840,W,4,27,0.9,2073.955,M,-12.177,M,4.2,0000*41"
270,0,0.0,43.565372467,"$GPGGA,203525.20,4029.0777312,N,10650.4617853,W,4,28,0.9,2073.876,M,-12.177,M,1.2,0000*44"
270,0,0.0,43.5657920837,"$GPGGA,203526.20,4029.0777270,N,10650.4617727,W,4,28,0.9,2073.919,M,-12.177,M,2.2,0000*45"
