;GPS@@@
;Ver=1.1.0
;DIP=2009-00152-00
;Date=2024-May-21 20:17:08
;Offset_m=0.00,0.00,0.00
;Latency_s=0.00
;---------------------------------------------------------------------------------------------------------------------------------------------
traces,odo_tick,pos(m),time_elapsed(s),GPS
5,0,0.0,1.99767196178,"$GPGGA,185934.20,4029.0718385,N,10650.4549364,W,1,27,0.6,2073.964,M,-12.177,M,0.0,*41"
13,0,0.0,2.96855592728,"$GPGGA,185935.20,4029.0720687,N,10650.4571641,W,1,27,1.1,2073.797,M,-12.177,M,1.2,*42"
24,0,0.0,4.00208187103,"$GPGGA,185936.20,4029.0716102,N,10650.4542331,W,4,26,1.3,2072.172,M,-12.177,M,2.2,0000*45"
34,0,0.0,4.92595481873,"$GPGGA,185937.20,4029.0718916,N,10650.4537622,W,4,27,1.3,2072.089,M,-12.177,M,3.2,0000*47"
43,0,0.0,6.00745916367,"$GPGGA,185938.20,4029.0721288,N,10650.4531706,W,4,27,1.3,2071.961,M,-12.177,M,4.2,0000*44"
52,0,0.0,6.94640111923,"$GPGGA,185939.20,4029.0723618,N,10650.4526040,W,4,27,1.3,2071.849,M,-12.177,M,5.2,0000*43"
59,0,0.0,8.00824069977,"$GPGGA,185940.20,4029.0725683,N,10650.4521932,W,4,27,1.3,2071.704,M,-12.177,M,6.2,0000*47"
68,0,0.0,9.06094646454,"$GPGGA,185941.20,4029.0728052,N,10650.4517292,W,4,27,1.3,2071.622,M,-12.177,M,7.2,0000*41"
78,0,0.0,9.97892189026,"$GPGGA,185942.20,4029.0730823,N,10650.4510761,W,4,27,1.3,2071.463,M,-12.177,M,8.2,0000*43"
87,0,0.0,10.9054498672,"$GPGGA,185943.20,4029.0733261,N,10650.4505851,W,4,27,1.3,2071.369,M,-12.177,M,9.2,0000*49"
96,0,0.0,11.9599542618,"$GPGGA,185944.20,4029.0741358,N,10650.4497168,W,1,28,0.6,2072.598,M,-12.177,M,0.0,*47"
105,0,0.0,12.9172706604,"$GPGGA,185945.20,4029.0737055,N,10650.4498889,W,1,27,0.9,2072.196,M,-12.177,M,1.2,*49"
115,0,0.0,13.9476213455,"$GPGGA,185946.20,4029.0740286,N,10650.4489019,W,4,26,0.9,2071.182,M,-12.177,M,2.2,0000*46"
125,0,0.0,14.9741401672,"$GPGGA,185947.20,4029.0743174,N,10650.4482981,W,4,25,0.9,2071.117,M,-12.177,M,1.2,0000*45"
135,0,0.0,16.0574245453,"$GPGGA,185948.20,4029.0745815,N,10650.4476654,W,4,27,1.0,2070.985,M,-12.177,M,2.2,0000*45"
144,0,0.0,16.9739303589,"$GPGGA,185949.20,4029.0748262,N,10650.4471278,W,4,26,1.0,2070.871,M,-12.177,M,3.2,0000*44"
153,0,0.0,17.9145507812,"$GPGGA,185950.20,4029.0750436,N,10650.4466769,W,4,27,0.9,2070.836,M,-12.177,M,4.2,0000*4C"
164,0,0.0,18.9741916656,"$GPGGA,185951.20,4029.0753080,N,10650.4459251,W,4,26,0.9,2070.648,M,-12.177,M,5.2,0000*42"
173,0,0.0,19.9086036682,"$GPGGA,185952.20,4029.0755548,N,10650.4453821,W,4,27,0.9,2070.520,M,-12.177,M,6.2,0000*4E"
182,0,0.0,20.9664382935,"$GPGGA,185953.20,4029.0757832,N,10650.4447919,W,4,28,0.9,2070.339,M,-12.177,M,7.2,0000*42"
191,0,0.0,22.0416088104,"$GPGGA,185954.20,4029.0760543,N,10650.4443275,W,4,27,0.9,2070.156,M,-12.177,M,8.2,0000*44"
199,0,0.0,22.9572963715,"$GPGGA,185955.20,4029.0762324,N,10650.4438717,W,4,27,0.9,2070.098,M,-12.177,M,1.2,0000*47"
206,0,0.0,24.0052547455,"$GPGGA,185956.20,4029.0763773,N,10650.4434222,W,4,27,0.9,2070.042,M,-12.177,M,2.2,0000*48"
213,0,0.0,24.9302597046,"$GPGGA,185957.20,4029.0765532,N,10650.4429185,W,4,27,0.9,2069.941,M,-12.177,M,3.2,0000*49"
221,0,0.0,25.9771347046,"$GPGGA,185958.20,4029.0767535,N,10650.4424567,W,4,27,0.9,2069.816,M,-12.177,M,2.2,0000*44"
228,0,0.0,26.9820346832,"$GPGGA,185959.20,4029.0769389,N,10650.4419398,W,4,28,0.7,2069.682,M,-12.177,M,3.2,0000*41"
231,0,0.0,28.0086708069,"$GPGGA,190000.20,4029.0769894,N,10650.4417176,W,4,27,0.9,2069.632,M,-12.177,M,4.2,0000*46"
233,0,0.0,28.9403476715,"$GPGGA,190001.20,4029.0770283,N,10650.4416427,W,4,27,0.9,2069.619,M,-12.177,M,5.2,0000*4B"
240,0,0.0,29.9540653229,"$GPGGA,190002.20,4029.0771711,N,10650.4412625,W,4,28,0.7,2069.542,M,-12.177,M,6.2,0000*4C"
245,0,0.0,30.9218559265,"$GPGGA,190003.20,4029.0773078,N,10650.4409003,W,4,27,0.9,2069.496,M,-12.177,M,1.2,0000*41"
252,0,0.0,31.9559707642,"$GPGGA,190004.20,4029.0775149,N,10650.4404995,W,4,27,0.9,2069.454,M,-12.177,M,2.2,0000*45"
257,0,0.0,32.8854637146,"$GPGGA,190005.20,4029.0776479,N,10650.4402296,W,4,27,0.9,2069.436,M,-12.177,M,3.2,0000*4A"
263,0,0.0,33.9296607971,"$GPGGA,190006.20,4029.0783071,N,10650.4397032,W,1,28,0.6,2068.982,M,-12.177,M,4.2,*49"
265,0,0.0,34.9482688904,"$GPGGA,190007.20,4029.0784725,N,10650.4395152,W,1,28,0.6,2068.862,M,-12.177,M,5.2,*42"
