;GPS@@@
;Ver=1.1.0
;DIP=2009-00152-00
;Date=2024-May-21 20:38:50
;Offset_m=0.00,0.00,0.00
;Latency_s=0.00
;---------------------------------------------------------------------------------------------------------------------------------------------
traces,odo_tick,pos(m),time_elapsed(s),GPS
2,0,0.0,1.51902198792,"$GPGGA,192115.20,4029.0782340,N,10650.4604773,W,1,26,0.6,2071.333,M,-12.177,M,0.0,*45"
9,0,0.0,2.47510504723,"$GPGGA,192116.20,4029.0784850,N,10650.4600946,W,1,26,0.6,2071.049,M,-12.177,M,0.0,*48"
16,0,0.0,3.50455093384,"$GPGGA,192117.20,4029.0784494,N,10650.4595632,W,1,25,1.0,2071.260,M,-12.177,M,1.2,*40"
21,0,0.0,4.54029607773,"$GPGGA,192118.20,4029.0783285,N,10650.4596731,W,4,25,1.0,2073.098,M,-12.177,M,2.2,0000*4E"
29,0,0.0,5.48928785324,"$GPGGA,192119.20,4029.0784653,N,10650.4592313,W,4,25,1.0,2072.921,M,-12.177,M,1.2,0000*4E"
37,0,0.0,6.54870510101,"$GPGGA,192120.20,4029.0787547,N,10650.4587099,W,4,25,1.0,2072.672,M,-12.177,M,2.2,0000*4E"
44,0,0.0,7.47593021393,"$GPGGA,192121.20,4029.0789267,N,10650.4583012,W,4,24,1.0,2072.491,M,-12.177,M,1.2,0000*4E"
51,0,0.0,8.52929973602,"$GPGGA,192122.20,4029.0791049,N,10650.4578879,W,4,25,1.0,2072.331,M,-12.177,M,2.2,0000*44"
61,0,0.0,9.55848503113,"$GPGGA,192123.20,4029.0793463,N,10650.4574144,W,4,25,0.8,2072.140,M,-12.177,M,1.2,0000*4E"
70,0,0.0,10.4876718521,"$GPGGA,192124.20,4029.0796143,N,10650.4568712,W,4,25,0.8,2071.965,M,-12.177,M,2.2,0000*4C"
78,0,0.0,11.5053253174,"$GPGGA,192125.20,4029.0798769,N,10650.4564655,W,4,25,0.8,2071.824,M,-12.177,M,3.2,0000*46"
88,0,0.0,12.5523796082,"$GPGGA,192126.20,4029.0801738,N,10650.4559428,W,4,26,0.8,2071.675,M,-12.177,M,4.2,0000*46"
96,0,0.0,13.4852647781,"$GPGGA,192127.20,4029.0804287,N,10650.4554867,W,4,26,0.8,2071.590,M,-12.177,M,1.2,0000*44"
106,0,0.0,14.5183200836,"$GPGGA,192128.20,4029.0806829,N,10650.4549986,W,4,26,0.8,2071.494,M,-12.177,M,2.2,0000*43"
115,0,0.0,15.5355997086,"$GPGGA,192129.20,4029.0809961,N,10650.4544448,W,4,25,0.9,2071.396,M,-12.177,M,1.2,0000*46"
126,0,0.0,16.5641613007,"$GPGGA,192130.20,4029.0812786,N,10650.4539431,W,4,25,0.9,2071.307,M,-12.177,M,2.2,0000*4C"
134,0,0.0,17.5028572083,"$GPGGA,192131.20,4029.0815672,N,10650.4533600,W,4,25,0.9,2071.227,M,-12.177,M,3.2,0000*48"
144,0,0.0,18.5533752441,"$GPGGA,192132.20,4029.0818620,N,10650.4528240,W,4,26,0.8,2071.115,M,-12.177,M,4.2,0000*4C"
154,0,0.0,19.4775333405,"$GPGGA,192133.20,4029.0821942,N,10650.4521874,W,4,26,0.8,2070.966,M,-12.177,M,1.2,0000*40"
164,0,0.0,20.5018634796,"$GPGGA,192134.20,4029.0824753,N,10650.4515833,W,4,26,0.8,2070.812,M,-12.177,M,2.2,0000*49"
173,0,0.0,21.5517253876,"$GPGGA,192135.20,4029.0827478,N,10650.4510527,W,4,24,0.8,2070.709,M,-12.177,M,1.2,0000*48"
182,0,0.0,22.5114002228,"$GPGGA,192136.20,4029.0830053,N,10650.4505250,W,4,24,0.8,2070.550,M,-12.177,M,2.2,0000*4E"
192,0,0.0,23.559091568,"$GPGGA,192137.20,4029.0832884,N,10650.4499656,W,4,24,0.8,2070.366,M,-12.177,M,3.2,0000*4B"
200,0,0.0,24.49426651,"$GPGGA,192138.20,4029.0834735,N,10650.4495419,W,4,24,0.8,2070.288,M,-12.177,M,4.2,0000*44"
207,0,0.0,25.5274333954,"$GPGGA,192139.20,4029.0836612,N,10650.4491079,W,4,24,0.8,2070.232,M,-12.177,M,1.2,0000*41"
216,0,0.0,26.6127471924,"$GPGGA,192140.20,4029.0838961,N,10650.4485909,W,4,24,0.8,2070.143,M,-12.177,M,2.2,0000*47"
224,0,0.0,27.5517406464,"$GPGGA,192141.20,4029.0841218,N,10650.4481295,W,4,24,0.8,2070.079,M,-12.177,M,3.2,0000*4E"
231,0,0.0,28.5724067688,"$GPGGA,192142.20,4029.0843071,N,10650.4476635,W,4,24,0.8,2070.000,M,-12.177,M,4.2,0000*4D"
240,0,0.0,29.5194168091,"$GPGGA,192143.20,4029.0845061,N,10650.4471800,W,4,24,0.8,2069.930,M,-12.177,M,1.2,0000*43"
247,0,0.0,30.5742835999,"$GPGGA,192144.20,4029.0847005,N,10650.4467185,W,4,24,0.8,2069.909,M,-12.177,M,2.2,0000*4E"
254,0,0.0,31.5504932404,"$GPGGA,192145.20,4029.0848948,N,10650.4462778,W,4,25,0.8,2069.916,M,-12.177,M,1.2,0000*4D"
260,0,0.0,32.7643241882,"$GPGGA,192146.20,4029.0851126,N,10650.4459181,W,4,25,0.8,2069.912,M,-12.177,M,2.2,0000*49"
260,0,0.0,32.7648162842,"$GPGGA,192147.20,4029.0851112,N,10650.4459020,W,4,25,0.8,2069.904,M,-12.177,M,1.2,0000*41"
