;GPS@@@
;Ver=1.1.0
;DIP=2009-00152-00
;Date=2024-May-21 21:48:16
;Offset_m=0.00,0.00,0.00
;Latency_s=0.00
;---------------------------------------------------------------------------------------------------------------------------------------------
traces,odo_tick,pos(m),time_elapsed(s),GPS
1,0,0.0,11.8332252502,"$GPGGA,203042.20,4029.0751233,N,10650.4591688,W,5,27,0.9,2074.467,M,-12.177,M,2.2,0000*45"
1,0,0.0,11.8337039948,"$GPGGA,203043.20,4029.0751195,N,10650.4591656,W,5,26,0.9,2074.470,M,-12.177,M,1.2,0000*4C"
1,0,0.0,11.8341150284,"$GPGGA,203044.20,4029.0751473,N,10650.4591901,W,5,26,0.9,2074.467,M,-12.177,M,2.2,0000*4E"
1,0,0.0,11.8345127106,"$GPGGA,203045.20,4029.0751651,N,10650.4592038,W,5,27,0.9,2074.467,M,-12.177,M,1.2,0000*4F"
1,0,0.0,11.8349065781,"$GPGGA,203046.20,4029.0751674,N,10650.4592070,W,5,27,0.9,2074.459,M,-12.177,M,2.2,0000*49"
1,0,0.0,11.8353052139,"$GPGGA,203047.20,4029.0751691,N,10650.4592100,W,5,27,0.9,2074.456,M,-12.177,M,1.2,0000*49"
2,0,0.0,12.8653202057,"$GPGGA,203048.20,4029.0751706,N,10650.4592050,W,5,25,1.0,2074.451,M,-12.177,M,2.2,0000*43"
2,0,0.0,12.8658151627,"$GPGGA,203049.20,4029.0751720,N,10650.4592016,W,5,26,1.0,2074.448,M,-12.177,M,1.2,0000*4C"
2,0,0.0,12.8662233353,"$GPGGA,203050.20,4029.0751730,N,10650.4591914,W,5,26,1.0,2074.456,M,-12.177,M,2.2,0000*41"
2,0,0.0,12.8666257858,"$GPGGA,203051.20,4029.0751775,N,10650.4591885,W,5,26,1.0,2074.454,M,-12.177,M,3.2,0000*4B"
2,0,0.0,12.8670310974,"$GPGGA,203052.20,4029.0751865,N,10650.4591665,W,5,26,1.0,2074.449,M,-12.177,M,4.2,0000*4D"
2,0,0.0,12.8674850464,"$GPGGA,203053.20,4029.0751971,N,10650.4591533,W,5,26,1.0,2074.436,M,-12.177,M,1.2,0000*45"
8,0,0.0,13.8919630051,"$GPGGA,203054.20,4029.0753206,N,10650.4589046,W,5,26,1.0,2074.336,M,-12.177,M,2.2,0000*41"
18,0,0.0,14.8331813812,"$GPGGA,203055.20,4029.0756530,N,10650.4583388,W,5,26,1.0,2074.095,M,-12.177,M,3.2,0000*47"
32,0,0.0,15.8642625809,"$GPGGA,203056.20,4029.0760959,N,10650.4576477,W,5,26,1.0,2073.682,M,-12.177,M,4.2,0000*4F"
47,0,0.0,16.8004760742,"$GPGGA,203057.20,4029.0765474,N,10650.4567619,W,5,26,1.0,2073.130,M,-12.177,M,5.2,0000*4C"
61,0,0.0,17.8588123322,"$GPGGA,203058.20,4029.0769620,N,10650.4555809,W,1,28,0.5,2071.541,M,-12.177,M,6.2,*4F"
74,0,0.0,18.7791748047,"$GPGGA,203059.20,4029.0771350,N,10650.4547630,W,1,26,0.5,2071.166,M,-12.177,M,7.2,*4C"
88,0,0.0,19.8816242218,"$GPGGA,203100.20,4029.0774725,N,10650.4541292,W,1,29,0.5,2070.788,M,-12.177,M,8.2,*4F"
101,0,0.0,20.8097133636,"$GPGGA,203101.20,4029.0779816,N,10650.4538740,W,1,27,1.3,2071.741,M,-12.177,M,1.2,*4C"
113,0,0.0,21.8719654083,"$GPGGA,203102.20,4029.0780165,N,10650.4528781,W,5,27,1.3,2071.665,M,-12.177,M,2.2,0000*48"
125,0,0.0,22.7999324799,"$GPGGA,203103.20,4029.0783006,N,10650.4521948,W,4,28,1.3,2071.568,M,-12.177,M,3.2,0000*4D"
139,0,0.0,23.8685207367,"$GPGGA,203104.20,4029.0786607,N,10650.4512510,W,5,28,1.3,2071.405,M,-12.177,M,4.2,0000*45"
152,0,0.0,24.7990226746,"$GPGGA,203105.20,4029.0789900,N,10650.4505639,W,5,28,0.8,2071.297,M,-12.177,M,1.2,0000*4F"
165,0,0.0,25.8816223145,"$GPGGA,203106.20,4029.0793553,N,10650.4498680,W,5,29,0.8,2071.173,M,-12.177,M,2.2,0000*41"
178,0,0.0,26.820066452,"$GPGGA,203107.20,4029.0797376,N,10650.4490522,W,5,29,0.8,2071.003,M,-12.177,M,3.2,0000*41"
193,0,0.0,27.8545761108,"$GPGGA,203108.20,4029.0801718,N,10650.4481832,W,5,29,0.8,2070.702,M,-12.177,M,4.2,0000*4E"
206,0,0.0,28.8080615997,"$GPGGA,203109.20,4029.0805331,N,10650.4474466,W,5,29,0.8,2070.505,M,-12.177,M,1.2,0000*43"
219,0,0.0,29.8279495239,"$GPGGA,203110.20,4029.0808509,N,10650.4466472,W,5,28,0.8,2070.315,M,-12.177,M,2.2,0000*48"
232,0,0.0,30.8753356934,"$GPGGA,203111.20,4029.0811370,N,10650.4458945,W,5,28,0.8,2070.176,M,-12.177,M,1.2,0000*49"
241,0,0.0,31.8086109161,"$GPGGA,203112.20,4029.0813375,N,10650.4452545,W,5,30,0.9,2070.131,M,-12.177,M,2.2,0000*43"
253,0,0.0,32.8643074036,"$GPGGA,203113.20,4029.0816213,N,10650.4445045,W,5,29,1.0,2070.024,M,-12.177,M,3.2,0000*41"
266,0,0.0,33.7900238037,"$GPGGA,203114.20,4029.0818930,N,10650.4437236,W,5,29,1.0,2069.920,M,-12.177,M,4.2,0000*43"
275,0,0.0,35.1824531555,"$GPGGA,203115.20,4029.0820732,N,10650.4430644,W,5,29,1.0,2069.910,M,-12.177,M,5.2,0000*41"
275,0,0.0,35.1827163696,"$GPGGA,203116.20,4029.0820718,N,10650.4430302,W,5,29,1.0,2069.907,M,-12.177,M,6.2,0000*48"
