;GPS@@@
;Ver=1.1.0
;DIP=2009-00152-00
;Date=2024-May-21 20:41:00
;Offset_m=0.00,0.00,0.00
;Latency_s=0.00
;---------------------------------------------------------------------------------------------------------------------------------------------
traces,odo_tick,pos(m),time_elapsed(s),GPS
1,0,0.0,1.17351305485,"$GPGGA,192325.20,4029.0784821,N,10650.4616393,W,4,27,0.9,2073.607,M,-12.177,M,1.2,0000*4F"
4,0,0.0,2.10097503662,"$GPGGA,192326.20,4029.0785816,N,10650.4613706,W,4,25,1.0,2073.501,M,-12.177,M,2.2,0000*48"
8,0,0.0,3.12661504745,"$GPGGA,192327.20,4029.0787166,N,10650.4611209,W,4,25,1.0,2073.375,M,-12.177,M,1.2,0000*4B"
16,0,0.0,4.16938781738,"$GPGGA,192328.20,4029.0789144,N,10650.4607174,W,4,26,0.9,2073.199,M,-12.177,M,2.2,0000*4C"
23,0,0.0,5.10749721527,"$GPGGA,192329.20,4029.0791245,N,10650.4603224,W,4,26,1.0,2073.033,M,-12.177,M,1.2,0000*4E"
31,0,0.0,6.13782215118,"$GPGGA,192330.20,4029.0793386,N,10650.4598736,W,4,26,1.0,2072.850,M,-12.177,M,2.2,0000*42"
38,0,0.0,7.17128181458,"$GPGGA,192331.20,4029.0795465,N,10650.4594965,W,4,26,1.0,2072.683,M,-12.177,M,1.2,0000*48"
44,0,0.0,8.19095039368,"$GPGGA,192332.20,4029.0797144,N,10650.4591349,W,4,26,1.0,2072.540,M,-12.177,M,2.2,0000*41"
52,0,0.0,9.14101791382,"$GPGGA,192333.20,4029.0799092,N,10650.4587962,W,4,26,1.0,2072.425,M,-12.177,M,1.2,0000*41"
60,0,0.0,10.1552667618,"$GPGGA,192334.20,4029.0801333,N,10650.4582727,W,4,27,0.9,2072.225,M,-12.177,M,2.2,0000*46"
68,0,0.0,11.1995811462,"$GPGGA,192335.20,4029.0803902,N,10650.4578359,W,4,27,0.9,2072.099,M,-12.177,M,1.2,0000*43"
77,0,0.0,12.1397409439,"$GPGGA,192336.20,4029.0806558,N,10650.4572511,W,4,27,0.9,2071.935,M,-12.177,M,2.2,0000*49"
87,0,0.0,13.1653862,"$GPGGA,192337.20,4029.0809007,N,10650.4567296,W,4,27,0.9,2071.779,M,-12.177,M,3.2,0000*43"
95,0,0.0,14.1870012283,"$GPGGA,192338.20,4029.0811271,N,10650.4563269,W,4,27,0.9,2071.664,M,-12.177,M,2.2,0000*4E"
102,0,0.0,15.1969108582,"$GPGGA,192339.20,4029.0813591,N,10650.4559115,W,4,27,0.9,2071.565,M,-12.177,M,1.2,0000*44"
108,0,0.0,16.2339801788,"$GPGGA,192340.20,4029.0815661,N,10650.4555664,W,4,26,1.0,2071.489,M,-12.177,M,2.2,0000*44"
117,0,0.0,17.2117767334,"$GPGGA,192341.20,4029.0818292,N,10650.4551289,W,4,26,0.9,2071.391,M,-12.177,M,1.2,0000*46"
125,0,0.0,18.2022953033,"$GPGGA,192342.20,4029.0820889,N,10650.4546861,W,4,26,0.9,2071.291,M,-12.177,M,2.2,0000*46"
134,0,0.0,19.2390594482,"$GPGGA,192343.20,4029.0824056,N,10650.4542727,W,4,25,1.0,2071.220,M,-12.177,M,1.2,0000*42"
145,0,0.0,20.1628437042,"$GPGGA,192344.20,4029.0827310,N,10650.4536242,W,4,26,0.9,2071.078,M,-12.177,M,2.2,0000*45"
154,0,0.0,21.2166423798,"$GPGGA,192345.20,4029.0829994,N,10650.4530972,W,4,26,0.9,2070.969,M,-12.177,M,1.2,0000*49"
165,0,0.0,22.1548786163,"$GPGGA,192346.20,4029.0833110,N,10650.4524614,W,4,25,1.0,2070.794,M,-12.177,M,2.2,0000*4B"
174,0,0.0,23.1732158661,"$GPGGA,192347.20,4029.0835875,N,10650.4519400,W,4,26,0.9,2070.638,M,-12.177,M,1.2,0000*40"
182,0,0.0,24.1773395538,"$GPGGA,192348.20,4029.0838301,N,10650.4514894,W,4,25,1.0,2070.514,M,-12.177,M,2.2,0000*43"
191,0,0.0,25.2466449738,"$GPGGA,192349.20,4029.0840648,N,10650.4509381,W,4,25,1.0,2070.383,M,-12.177,M,1.2,0000*4D"
199,0,0.0,26.2192306519,"$GPGGA,192350.20,4029.0842502,N,10650.4505006,W,4,25,1.0,2070.344,M,-12.177,M,2.2,0000*42"
209,0,0.0,27.1488132477,"$GPGGA,192351.20,4029.0845055,N,10650.4499516,W,4,26,0.9,2070.276,M,-12.177,M,3.2,0000*49"
218,0,0.0,28.1577835083,"$GPGGA,192352.20,4029.0847608,N,10650.4493954,W,4,25,1.0,2070.176,M,-12.177,M,4.2,0000*49"
226,0,0.0,29.1725597382,"$GPGGA,192353.20,4029.0849789,N,10650.4489338,W,4,25,1.0,2070.140,M,-12.177,M,1.2,0000*45"
235,0,0.0,30.2036304474,"$GPGGA,192354.20,4029.0852165,N,10650.4484340,W,4,25,1.0,2070.073,M,-12.177,M,2.2,0000*4C"
242,0,0.0,31.1397190094,"$GPGGA,192355.20,4029.0854279,N,10650.4479376,W,4,26,0.9,2070.047,M,-12.177,M,1.2,0000*4D"
248,0,0.0,32.1462974548,"$GPGGA,192356.20,4029.0855791,N,10650.4475908,W,4,26,0.9,2070.027,M,-12.177,M,2.2,0000*46"
254,0,0.0,33.1524276733,"$GPGGA,192357.20,4029.0857733,N,10650.4472357,W,4,26,0.8,2070.015,M,-12.177,M,1.2,0000*49"
258,0,0.0,34.1840705872,"$GPGGA,192358.20,4029.0858744,N,10650.4470262,W,4,26,0.8,2069.967,M,-12.177,M,2.2,0000*4B"
261,0,0.0,35.1171035767,"$GPGGA,192359.20,4029.0859626,N,10650.4468322,W,4,26,0.8,2069.951,M,-12.177,M,3.2,0000*46"
263,0,0.0,36.2264938354,"$GPGGA,192400.20,4029.0860409,N,10650.4466602,W,4,27,0.8,2069.948,M,-12.177,M,4.2,0000*4F"
263,0,0.0,36.2267456055,"$GPGGA,192401.20,4029.0860480,N,10650.4466502,W,4,26,0.8,2069.947,M,-12.177,M,1.2,0000*47"
