;GPS@@@
;Ver=1.1.0
;DIP=2009-00152-00
;Date=2024-May-21 21:54:21
;Offset_m=0.00,0.00,0.00
;Latency_s=0.00
;---------------------------------------------------------------------------------------------------------------------------------------------
traces,odo_tick,pos(m),time_elapsed(s),GPS
1,0,0.0,7.97495794296,"$GPGGA,203647.20,4029.0863838,N,10650.4473386,W,4,29,1.0,2069.994,M,-12.177,M,3.2,0000*44"
1,0,0.0,7.97552013397,"$GPGGA,203648.20,4029.0863883,N,10650.4473497,W,4,29,1.0,2069.975,M,-12.177,M,4.2,0000*44"
1,0,0.0,7.97595691681,"$GPGGA,203649.20,4029.0863704,N,10650.4473950,W,4,29,1.0,2069.970,M,-12.177,M,1.2,0000*43"
2,0,0.0,7.97635793686,"$GPGGA,203650.20,4029.0863702,N,10650.4474046,W,4,29,1.0,2069.961,M,-12.177,M,2.2,0000*47"
2,0,0.0,7.97676086426,"$GPGGA,203651.20,4029.0863707,N,10650.4474071,W,4,29,1.0,2069.959,M,-12.177,M,3.2,0000*4D"
2,0,0.0,7.97716522217,"$GPGGA,203652.20,4029.0863702,N,10650.4474068,W,4,29,1.0,2069.965,M,-12.177,M,4.2,0000*4B"
2,0,0.0,7.97756195068,"$GPGGA,203653.20,4029.0863673,N,10650.4474099,W,4,29,1.0,2069.970,M,-12.177,M,5.2,0000*46"
11,0,0.0,8.94766235352,"$GPGGA,203654.20,4029.0862244,N,10650.4475560,W,1,30,0.5,2072.191,M,-12.177,M,6.2,*45"
21,0,0.0,9.88918304443,"$GPGGA,203655.20,4029.0858423,N,10650.4480170,W,1,31,0.5,2071.634,M,-12.177,M,7.2,*4E"
32,0,0.0,11.0084619522,"$GPGGA,203656.20,4029.0855233,N,10650.4486359,W,1,31,0.5,2071.016,M,-12.177,M,8.2,*41"
46,0,0.0,12.0261869431,"$GPGGA,203657.20,4029.0849524,N,10650.4501274,W,1,28,1.2,2070.897,M,-12.177,M,1.2,*4B"
59,0,0.0,13.04829216,"$GPGGA,203658.20,4029.0847627,N,10650.4504026,W,4,29,1.2,2070.310,M,-12.177,M,2.2,0000*49"
70,0,0.0,13.9598903656,"$GPGGA,203659.20,4029.0844731,N,10650.4512177,W,4,29,1.2,2070.389,M,-12.177,M,1.2,0000*4C"
78,0,0.0,14.9922008514,"$GPGGA,203700.20,4029.0842681,N,10650.4516817,W,4,28,1.2,2070.469,M,-12.177,M,2.2,0000*4D"
85,0,0.0,16.0497283936,"$GPGGA,203701.20,4029.0840905,N,10650.4520290,W,4,29,1.2,2070.560,M,-12.177,M,1.2,0000*47"
93,0,0.0,16.971818924,"$GPGGA,203702.20,4029.0838776,N,10650.4525181,W,4,29,1.2,2070.641,M,-12.177,M,2.2,0000*44"
100,0,0.0,18.0119800568,"$GPGGA,203703.20,4029.0837014,N,10650.4529255,W,4,29,1.2,2070.741,M,-12.177,M,3.2,0000*4F"
110,0,0.0,19.0657100677,"$GPGGA,203704.20,4029.0834723,N,10650.4535690,W,4,28,1.2,2070.860,M,-12.177,M,4.2,0000*42"
118,0,0.0,19.9728622437,"$GPGGA,203705.20,4029.0832934,N,10650.4539998,W,4,28,1.2,2070.942,M,-12.177,M,1.2,0000*42"
126,0,0.0,20.8911018372,"$GPGGA,203706.20,4029.0830589,N,10650.4542641,W,1,30,0.5,2070.995,M,-12.177,M,2.2,*4D"
134,0,0.0,21.9371910095,"$GPGGA,203707.20,4029.0829099,N,10650.4545670,W,1,30,0.5,2070.878,M,-12.177,M,3.2,*46"
143,0,0.0,22.9588413239,"$GPGGA,203708.20,4029.0827410,N,10650.4551537,W,1,29,0.5,2070.813,M,-12.177,M,4.2,*45"
152,0,0.0,23.9015922546,"$GPGGA,203709.20,4029.0825338,N,10650.4557638,W,1,29,0.5,2070.837,M,-12.177,M,5.2,*46"
159,0,0.0,24.9399623871,"$GPGGA,203710.20,4029.0823641,N,10650.4561053,W,1,29,0.5,2070.837,M,-12.177,M,6.2,*4E"
165,0,0.0,25.9679737091,"$GPGGA,203711.20,4029.0821730,N,10650.4573799,W,1,28,1.5,2069.214,M,-12.177,M,1.2,*4C"
168,0,0.0,26.9002170563,"$GPGGA,203712.20,4029.0819919,N,10650.4571483,W,4,28,1.5,2071.666,M,-12.177,M,2.2,0000*45"
173,0,0.0,27.9263153076,"$GPGGA,203713.20,4029.0818680,N,10650.4574499,W,4,30,1.0,2071.752,M,-12.177,M,1.2,0000*4D"
179,0,0.0,28.9714775085,"$GPGGA,203714.20,4029.0817290,N,10650.4577843,W,4,28,1.0,2071.826,M,-12.177,M,2.2,0000*4E"
185,0,0.0,29.8806629181,"$GPGGA,203715.20,4029.0816065,N,10650.4581609,W,4,29,1.0,2071.880,M,-12.177,M,3.2,0000*43"
191,0,0.0,30.8984184265,"$GPGGA,203716.20,4029.0814488,N,10650.4584759,W,4,30,1.0,2071.996,M,-12.177,M,4.2,0000*4D"
198,0,0.0,31.9232444763,"$GPGGA,203717.20,4029.0813166,N,10650.4588646,W,4,28,1.0,2072.099,M,-12.177,M,5.2,0000*40"
206,0,0.0,32.9470062256,"$GPGGA,203718.20,4029.0810901,N,10650.4593658,W,4,28,1.0,2072.261,M,-12.177,M,6.2,0000*46"
213,0,0.0,33.9839515686,"$GPGGA,203719.20,4029.0809306,N,10650.4597359,W,4,29,1.0,2072.388,M,-12.177,M,1.2,0000*42"
221,0,0.0,34.9990119934,"$GPGGA,203720.20,4029.0807412,N,10650.4602358,W,4,29,1.0,2072.553,M,-12.177,M,2.2,0000*49"
227,0,0.0,35.9131278992,"$GPGGA,203721.20,4029.0805749,N,10650.4605764,W,4,28,1.0,2072.685,M,-12.177,M,1.2,0000*41"
235,0,0.0,36.9676475525,"$GPGGA,203722.20,4029.0804158,N,10650.4611155,W,4,27,1.0,2072.848,M,-12.177,M,2.2,0000*47"
243,0,0.0,37.8971862793,"$GPGGA,203723.20,4029.0802778,N,10650.4615827,W,4,28,1.0,2072.996,M,-12.177,M,1.2,0000*42"
250,0,0.0,38.9428749084,"$GPGGA,203724.20,4029.0801599,N,10650.4620542,W,4,28,1.0,2073.139,M,-12.177,M,2.2,0000*4C"
257,0,0.0,39.9850006104,"$GPGGA,203725.20,4029.0800255,N,10650.4625333,W,4,28,1.0,2073.227,M,-12.177,M,1.2,0000*41"
264,0,0.0,40.9089889526,"$GPGGA,203726.20,4029.0798701,N,10650.4630779,W,4,29,1.0,2073.309,M,-12.177,M,2.2,0000*49"
269,0,0.0,42.2558708191,"$GPGGA,203727.20,4029.0797312,N,10650.4634676,W,4,28,0.9,2073.396,M,-12.177,M,1.2,0000*47"
269,0,0.0,42.2563514709,"$GPGGA,203728.20,4029.0797287,N,10650.4634912,W,4,27,0.9,2073.396,M,-12.177,M,2.2,0000*44"
