;GPS@@@
;Ver=1.1.0
;DIP=2009-00152-00
;Date=2024-May-21 21:59:48
;Offset_m=0.00,0.00,0.00
;Latency_s=0.00
;---------------------------------------------------------------------------------------------------------------------------------------------
traces,odo_tick,pos(m),time_elapsed(s),GPS
1,0,0.0,13.9279022217,"$GPGGA,204214.20,4029.0865297,N,10650.4515500,W,4,27,0.9,2070.379,M,-12.177,M,2.2,0000*47"
1,0,0.0,13.928445816,"$GPGGA,204215.20,4029.0865299,N,10650.4515472,W,4,27,0.9,2070.381,M,-12.177,M,1.2,0000*48"
1,0,0.0,13.9289131165,"$GPGGA,204216.20,4029.0865288,N,10650.4515455,W,4,28,0.8,2070.389,M,-12.177,M,2.2,0000*4B"
1,0,0.0,13.9293327332,"$GPGGA,204217.20,4029.0865314,N,10650.4515479,W,4,28,0.8,2070.377,M,-12.177,M,1.2,0000*42"
1,0,0.0,13.9298181534,"$GPGGA,204218.20,4029.0865313,N,10650.4515489,W,4,28,0.8,2070.378,M,-12.177,M,2.2,0000*49"
1,0,0.0,13.9302368164,"$GPGGA,204219.20,4029.0865296,N,10650.4515484,W,4,29,0.8,2070.382,M,-12.177,M,1.2,0000*4E"
2,0,0.0,13.9306402206,"$GPGGA,204220.20,4029.0865299,N,10650.4515500,W,4,29,0.8,2070.380,M,-12.177,M,2.2,0000*47"
2,0,0.0,13.9310474396,"$GPGGA,204221.20,4029.0865313,N,10650.4515505,W,4,30,0.8,2070.372,M,-12.177,M,1.2,0000*46"
2,0,0.0,13.9314403534,"$GPGGA,204222.20,4029.0865337,N,10650.4515523,W,4,29,0.9,2070.367,M,-12.177,M,2.2,0000*49"
2,0,0.0,13.9318361282,"$GPGGA,204223.20,4029.0865287,N,10650.4515471,W,4,30,0.9,2070.378,M,-12.177,M,1.2,0000*41"
2,0,0.0,13.9322328568,"$GPGGA,204224.20,4029.0865289,N,10650.4515451,W,4,30,0.9,2070.383,M,-12.177,M,2.2,0000*4D"
2,0,0.0,13.9326276779,"$GPGGA,204225.20,4029.0865267,N,10650.4515447,W,4,30,0.9,2070.389,M,-12.177,M,1.2,0000*42"
2,0,0.0,13.9330205917,"$GPGGA,204226.20,4029.0865266,N,10650.4515452,W,4,30,0.9,2070.389,M,-12.177,M,2.2,0000*47"
8,0,0.0,14.9616041183,"$GPGGA,204227.20,4029.0862685,N,10650.4513030,W,4,30,0.9,2070.355,M,-12.177,M,1.2,0000*4C"
19,0,0.0,15.9870014191,"$GPGGA,204228.20,4029.0857813,N,10650.4508691,W,4,31,0.9,2070.316,M,-12.177,M,2.2,0000*46"
32,0,0.0,16.9330863953,"$GPGGA,204229.20,4029.0852544,N,10650.4504375,W,4,30,0.9,2070.295,M,-12.177,M,1.2,0000*46"
43,0,0.0,17.9425144196,"$GPGGA,204230.20,4029.0847967,N,10650.4499976,W,4,30,0.9,2070.277,M,-12.177,M,2.2,0000*44"
54,0,0.0,19.0114345551,"$GPGGA,204231.20,4029.0842931,N,10650.4495620,W,4,30,0.9,2070.247,M,-12.177,M,3.2,0000*41"
66,0,0.0,19.9675598145,"$GPGGA,204232.20,4029.0837498,N,10650.4490840,W,4,29,0.9,2070.242,M,-12.177,M,4.2,0000*49"
78,0,0.0,21.0010662079,"$GPGGA,204233.20,4029.0832448,N,10650.4486519,W,4,30,0.9,2070.216,M,-12.177,M,5.2,0000*4E"
88,0,0.0,21.932012558,"$GPGGA,204234.20,4029.0827894,N,10650.4482530,W,4,30,0.9,2070.194,M,-12.177,M,6.2,0000*45"
98,0,0.0,22.9758701324,"$GPGGA,204235.20,4029.0823412,N,10650.4478505,W,4,30,0.9,2070.180,M,-12.177,M,1.2,0000*43"
111,0,0.0,24.031206131,"$GPGGA,204236.20,4029.0818012,N,10650.4474024,W,4,30,0.9,2070.139,M,-12.177,M,2.2,0000*47"
123,0,0.0,24.9423446655,"$GPGGA,204237.20,4029.0812760,N,10650.4468876,W,4,30,0.9,2070.145,M,-12.177,M,1.2,0000*44"
135,0,0.0,25.9839859009,"$GPGGA,204238.20,4029.0807121,N,10650.4463547,W,4,30,0.9,2070.211,M,-12.177,M,2.2,0000*49"
147,0,0.0,26.9118309021,"$GPGGA,204239.20,4029.0801963,N,10650.4458276,W,4,30,0.9,2070.161,M,-12.177,M,1.2,0000*4A"
156,0,0.0,27.9258327484,"$GPGGA,204240.20,4029.0797691,N,10650.4454051,W,4,30,0.9,2070.127,M,-12.177,M,2.2,0000*4C"
166,0,0.0,28.9720535278,"$GPGGA,204241.20,4029.0793389,N,10650.4450379,W,4,30,0.9,2070.099,M,-12.177,M,3.2,0000*4D"
178,0,0.0,30.0154666901,"$GPGGA,204242.20,4029.0788177,N,10650.4445872,W,4,30,0.9,2070.073,M,-12.177,M,4.2,0000*40"
190,0,0.0,30.9463329315,"$GPGGA,204243.20,4029.0782669,N,10650.4440791,W,4,30,0.9,2070.005,M,-12.177,M,1.2,0000*40"
202,0,0.0,31.9597835541,"$GPGGA,204244.20,4029.0777744,N,10650.4435756,W,4,30,0.9,2069.936,M,-12.177,M,2.2,0000*48"
213,0,0.0,32.9892997742,"$GPGGA,204245.20,4029.0773190,N,10650.4431191,W,4,28,0.9,2069.886,M,-12.177,M,1.2,0000*4B"
223,0,0.0,34.0503616333,"$GPGGA,204246.20,4029.0768986,N,10650.4427475,W,4,28,0.9,2069.845,M,-12.177,M,2.2,0000*49"
231,0,0.0,34.9550170898,"$GPGGA,204247.20,4029.0764674,N,10650.4423558,W,4,28,0.9,2069.820,M,-12.177,M,1.2,0000*4C"
239,0,0.0,35.9856719971,"$GPGGA,204248.20,4029.0761141,N,10650.4420274,W,4,29,0.9,2069.791,M,-12.177,M,2.2,0000*4A"
247,0,0.0,36.9945030212,"$GPGGA,204249.20,4029.0757669,N,10650.4417897,W,4,30,0.9,2069.778,M,-12.177,M,1.2,0000*4C"
250,0,0.0,37.5528564453,"$GPGGA,204250.20,4029.0755041,N,10650.4416030,W,4,30,0.9,2069.758,M,-12.177,M,2.2,0000*4F"
