;GPS@@@
;Ver=1.1.0
;DIP=2009-00152-00
;Date=2024-May-21 20:59:00
;Offset_m=0.00,0.00,0.00
;Latency_s=0.00
;---------------------------------------------------------------------------------------------------------------------------------------------
traces,odo_tick,pos(m),time_elapsed(s),GPS
4,0,0.0,1.6343280077,"$GPGGA,194125.20,4029.0818896,N,10650.4597828,W,4,24,0.9,2072.145,M,-12.177,M,1.2,0000*4F"
14,0,0.0,2.67492508888,"$GPGGA,194126.20,4029.0814100,N,10650.4592936,W,4,24,0.9,2072.189,M,-12.177,M,2.2,0000*4E"
23,0,0.0,3.5944070816,"$GPGGA,194127.20,4029.0809688,N,10650.4589345,W,4,24,0.9,2072.225,M,-12.177,M,1.2,0000*46"
33,0,0.0,4.64619398117,"$GPGGA,194128.20,4029.0804661,N,10650.4585338,W,4,23,0.9,2072.252,M,-12.177,M,2.2,0000*41"
42,0,0.0,5.58518505096,"$GPGGA,194129.20,4029.0800940,N,10650.4582115,W,4,23,0.9,2072.279,M,-12.177,M,1.2,0000*48"
51,0,0.0,6.61658096313,"$GPGGA,194130.20,4029.0796710,N,10650.4578348,W,4,23,0.9,2072.215,M,-12.177,M,2.2,0000*4D"
58,0,0.0,7.57427978516,"$GPGGA,194131.20,4029.0793052,N,10650.4575800,W,4,26,0.7,2072.250,M,-12.177,M,1.2,0000*4B"
66,0,0.0,8.61839962006,"$GPGGA,194132.20,4029.0789128,N,10650.4574232,W,4,26,0.7,2072.299,M,-12.177,M,2.2,0000*43"
72,0,0.0,9.55043411255,"$GPGGA,194133.20,4029.0786765,N,10650.4571423,W,4,24,0.8,2072.310,M,-12.177,M,1.2,0000*4F"
78,0,0.0,10.5865077972,"$GPGGA,194134.20,4029.0784378,N,10650.4568862,W,4,24,0.8,2072.323,M,-12.177,M,2.2,0000*40"
81,0,0.0,13.613492012,"$GPGGA,194135.20,4029.0782435,N,10650.4567659,W,4,24,0.9,2072.325,M,-12.177,M,1.2,0000*44"
82,0,0.0,13.6156377792,"$GPGGA,194136.20,4029.0782495,N,10650.4567816,W,4,25,0.9,2072.336,M,-12.177,M,2.2,0000*48"
82,0,0.0,13.616973877,"$GPGGA,194137.20,4029.0782250,N,10650.4568123,W,4,26,0.9,2072.378,M,-12.177,M,1.2,0000*4C"
83,0,0.0,14.524969101,"$GPGGA,194138.20,4029.0782018,N,10650.4567975,W,4,26,0.9,2072.450,M,-12.177,M,2.2,0000*47"
87,0,0.0,15.5507774353,"$GPGGA,194139.20,4029.0780578,N,10650.4566887,W,4,26,0.9,2072.471,M,-12.177,M,1.2,0000*4A"
91,0,0.0,17.5734195709,"$GPGGA,194140.20,4029.0778624,N,10650.4564677,W,4,25,1.2,2072.473,M,-12.177,M,2.2,0000*42"
92,0,0.0,17.5739097595,"$GPGGA,194141.20,4029.0777751,N,10650.4565185,W,4,25,1.2,2072.510,M,-12.177,M,1.2,0000*43"
95,0,0.0,19.5888156891,"$GPGGA,194142.20,4029.0776538,N,10650.4564599,W,4,25,1.2,2072.521,M,-12.177,M,2.2,0000*45"
96,0,0.0,20.6446552277,"$GPGGA,194143.20,4029.0775680,N,10650.4563659,W,4,24,1.2,2072.545,M,-12.177,M,1.2,0000*4F"
97,0,0.0,20.6451282501,"$GPGGA,194144.20,4029.0773894,N,10650.4561419,W,4,24,1.2,2072.543,M,-12.177,M,2.2,0000*44"
105,0,0.0,21.6109924316,"$GPGGA,194145.20,4029.0770862,N,10650.4557873,W,4,24,1.2,2072.439,M,-12.177,M,3.2,0000*47"
112,0,0.0,22.6357269287,"$GPGGA,194146.20,4029.0767862,N,10650.4553432,W,4,24,1.2,2072.314,M,-12.177,M,4.2,0000*40"
120,0,0.0,23.6736011505,"$GPGGA,194147.20,4029.0764698,N,10650.4551051,W,4,24,1.2,2072.294,M,-12.177,M,1.2,0000*46"
129,0,0.0,24.62292099,"$GPGGA,194148.20,4029.0760331,N,10650.4549106,W,4,24,1.2,2072.307,M,-12.177,M,2.2,0000*49"
138,0,0.0,25.6276531219,"$GPGGA,194149.20,4029.0755079,N,10650.4545720,W,4,25,0.8,2072.293,M,-12.177,M,1.2,0000*4A"
149,0,0.0,26.5828323364,"$GPGGA,194150.20,4029.0749809,N,10650.4541654,W,4,25,0.8,2072.198,M,-12.177,M,2.2,0000*4D"
160,0,0.0,27.6193027496,"$GPGGA,194151.20,4029.0744738,N,10650.4538682,W,4,26,0.8,2072.177,M,-12.177,M,1.2,0000*48"
171,0,0.0,28.6219902039,"$GPGGA,194152.20,4029.0739751,N,10650.4535727,W,4,26,0.8,2072.162,M,-12.177,M,2.2,0000*4A"
182,0,0.0,29.5667762756,"$GPGGA,194153.20,4029.0734310,N,10650.4531737,W,4,26,0.8,2072.058,M,-12.177,M,1.2,0000*49"
193,0,0.0,30.5334148407,"$GPGGA,194154.20,4029.0729308,N,10650.4527404,W,4,26,0.8,2071.929,M,-12.177,M,2.2,0000*40"
203,0,0.0,31.5471057892,"$GPGGA,194155.20,4029.0724500,N,10650.4524169,W,4,26,0.8,2071.817,M,-12.177,M,1.2,0000*40"
214,0,0.0,32.599395752,"$GPGGA,194156.20,4029.0719634,N,10650.4519874,W,4,26,0.8,2071.653,M,-12.177,M,2.2,0000*4F"
225,0,0.0,33.6253967285,"$GPGGA,194157.20,4029.0714854,N,10650.4516185,W,4,26,0.8,2071.471,M,-12.177,M,1.2,0000*42"
231,0,0.0,33.9878082275,"$GPGGA,194158.20,4029.0711784,N,10650.4513227,W,4,26,0.8,2071.365,M,-12.177,M,2.2,0000*45"
