;GPS@@@
;Ver=1.1.0
;DIP=2009-00152-00
;Date=2024-May-21 20:55:56
;Offset_m=0.00,0.00,0.00
;Latency_s=0.00
;---------------------------------------------------------------------------------------------------------------------------------------------
traces,odo_tick,pos(m),time_elapsed(s),GPS
1,0,0.0,4.52796792984,"$GPGGA,193821.20,4029.0819077,N,10650.4623053,W,4,23,0.9,2072.467,M,-12.177,M,1.2,0000*49"
1,0,0.0,4.52844190598,"$GPGGA,193822.20,4029.0819054,N,10650.4623042,W,4,23,0.9,2072.464,M,-12.177,M,2.2,0000*4B"
2,0,0.0,4.52885484695,"$GPGGA,193823.20,4029.0819044,N,10650.4623031,W,4,22,1.2,2072.494,M,-12.177,M,1.2,0000*48"
2,0,0.0,4.52925777435,"$GPGGA,193824.20,4029.0819050,N,10650.4622948,W,4,22,1.2,2072.494,M,-12.177,M,2.2,0000*4F"
8,0,0.0,5.60213708878,"$GPGGA,193825.20,4029.0817194,N,10650.4620725,W,4,22,1.2,2072.547,M,-12.177,M,1.2,0000*42"
18,0,0.0,6.55661487579,"$GPGGA,193826.20,4029.0812829,N,10650.4617435,W,4,23,1.2,2072.673,M,-12.177,M,2.2,0000*4B"
27,0,0.0,7.57037210464,"$GPGGA,193827.20,4029.0807599,N,10650.4613985,W,4,23,1.2,2072.825,M,-12.177,M,1.2,0000*44"
36,0,0.0,8.58813285828,"$GPGGA,193828.20,4029.0803241,N,10650.4610761,W,4,23,1.2,2072.894,M,-12.177,M,2.2,0000*43"
47,0,0.0,9.55323886871,"$GPGGA,193829.20,4029.0798366,N,10650.4606481,W,4,24,1.2,2072.927,M,-12.177,M,1.2,0000*4C"
58,0,0.0,10.6034736633,"$GPGGA,193830.20,4029.0792915,N,10650.4603210,W,4,23,1.2,2072.987,M,-12.177,M,2.2,0000*45"
69,0,0.0,11.5442352295,"$GPGGA,193831.20,4029.0788184,N,10650.4599372,W,4,25,1.2,2073.028,M,-12.177,M,1.2,0000*42"
80,0,0.0,12.5754995346,"$GPGGA,193832.20,4029.0782634,N,10650.4594377,W,4,24,1.2,2073.055,M,-12.177,M,2.2,0000*47"
91,0,0.0,13.6047906876,"$GPGGA,193833.20,4029.0777991,N,10650.4591139,W,4,24,1.2,2073.137,M,-12.177,M,3.2,0000*45"
101,0,0.0,14.531003952,"$GPGGA,193834.20,4029.0774057,N,10650.4587280,W,4,25,1.2,2073.223,M,-12.177,M,4.2,0000*44"
110,0,0.0,15.5816440582,"$GPGGA,193835.20,4029.0770092,N,10650.4583995,W,4,23,1.2,2073.358,M,-12.177,M,5.2,0000*49"
119,0,0.0,16.5246582031,"$GPGGA,193836.20,4029.0765732,N,10650.4580483,W,4,24,1.2,2073.490,M,-12.177,M,6.2,0000*4D"
128,0,0.0,17.5546760559,"$GPGGA,193837.20,4029.0761739,N,10650.4575931,W,4,25,1.2,2073.543,M,-12.177,M,7.2,0000*42"
139,0,0.0,18.6061172485,"$GPGGA,193838.20,4029.0757397,N,10650.4570653,W,4,24,1.2,2073.467,M,-12.177,M,8.2,0000*4F"
147,0,0.0,19.5280189514,"$GPGGA,193839.20,4029.0752861,N,10650.4566052,W,4,24,1.2,2073.337,M,-12.177,M,9.2,0000*4A"
153,0,0.0,20.588300705,"$GPGGA,193840.20,4029.0753395,N,10650.4561733,W,1,25,0.6,2073.746,M,-12.177,M,0.0,*4A"
164,0,0.0,21.5386047363,"$GPGGA,193841.20,4029.0748772,N,10650.4558252,W,1,25,0.6,2073.641,M,-12.177,M,1.2,*41"
174,0,0.0,22.4986782074,"$GPGGA,193842.20,4029.0744651,N,10650.4556339,W,1,26,0.6,2073.444,M,-12.177,M,2.2,*4B"
187,0,0.0,23.5860214233,"$GPGGA,193843.20,4029.0736787,N,10650.4555920,W,1,26,1.2,2072.713,M,-12.177,M,1.2,*42"
199,0,0.0,24.5386009216,"$GPGGA,193844.20,4029.0729564,N,10650.4548062,W,4,25,1.2,2072.562,M,-12.177,M,2.2,0000*46"
211,0,0.0,25.6083202362,"$GPGGA,193845.20,4029.0724508,N,10650.4543644,W,4,23,1.0,2072.353,M,-12.177,M,1.2,0000*4A"
223,0,0.0,26.5589256287,"$GPGGA,193846.20,4029.0719262,N,10650.4538525,W,4,25,1.0,2072.093,M,-12.177,M,2.2,0000*4E"
233,0,0.0,27.5695228577,"$GPGGA,193847.20,4029.0715088,N,10650.4534597,W,4,26,1.0,2071.950,M,-12.177,M,3.2,0000*47"
238,0,0.0,28.5726013184,"$GPGGA,193848.20,4029.0712892,N,10650.4531865,W,4,25,1.0,2071.834,M,-12.177,M,4.2,0000*4E"
240,0,0.0,29.4849529266,"$GPGGA,193849.20,4029.0712199,N,10650.4530832,W,4,24,1.0,2071.803,M,-12.177,M,1.2,0000*4E"
245,0,0.0,30.5723075867,"$GPGGA,193850.20,4029.0710333,N,10650.4529066,W,4,26,1.0,2071.709,M,-12.177,M,2.2,0000*43"
252,0,0.0,31.4781627655,"$GPGGA,193851.20,4029.0707343,N,10650.4525817,W,4,26,1.0,2071.551,M,-12.177,M,3.2,0000*4F"
253,0,0.0,36.6994476318,"$GPGGA,193852.20,4029.0706794,N,10650.4525161,W,4,26,1.0,2071.546,M,-12.177,M,4.2,0000*4A"
253,0,0.0,36.6999359131,"$GPGGA,193853.20,4029.0706840,N,10650.4525319,W,4,25,1.0,2071.506,M,-12.177,M,1.2,0000*42"
253,0,0.0,36.7003479004,"$GPGGA,193854.20,4029.0709498,N,10650.4524338,W,1,26,0.6,2071.808,M,-12.177,M,2.2,*40"
253,0,0.0,36.700756073,"$GPGGA,193855.20,4029.0713349,N,10650.4536894,W,1,26,1.0,2072.187,M,-12.177,M,1.2,*46"
253,0,0.0,36.7011566162,"$GPGGA,193856.20,4029.0706813,N,10650.4525277,W,4,25,1.2,2071.515,M,-12.177,M,2.2,0000*4B"
253,0,0.0,36.7015533447,"$GPGGA,193857.20,4029.0706820,N,10650.4525284,W,4,25,1.2,2071.518,M,-12.177,M,1.2,0000*48"
