;GPS@@@
;Ver=1.1.0
;DIP=2009-00152-00
;Date=2024-May-21 22:00:47
;Offset_m=0.00,0.00,0.00
;Latency_s=0.00
;---------------------------------------------------------------------------------------------------------------------------------------------
traces,odo_tick,pos(m),time_elapsed(s),GPS
1,0,0.0,7.53285217285,"$GPGGA,204313.20,4029.0751553,N,10650.4432150,W,4,29,0.8,2070.088,M,-12.177,M,1.2,0000*42"
1,0,0.0,7.53340101242,"$GPGGA,204314.20,4029.0751578,N,10650.4432196,W,4,30,0.7,2070.075,M,-12.177,M,2.2,0000*40"
1,0,0.0,7.53385019302,"$GPGGA,204315.20,4029.0751589,N,10650.4432166,W,4,29,0.8,2070.083,M,-12.177,M,3.2,0000*4F"
1,0,0.0,7.53427791595,"$GPGGA,204316.20,4029.0752013,N,10650.4429381,W,1,31,0.5,2070.897,M,-12.177,M,4.2,*43"
2,0,0.0,7.53470182419,"$GPGGA,204317.20,4029.0752408,N,10650.4429451,W,1,31,0.5,2070.620,M,-12.177,M,5.2,*45"
2,0,0.0,7.53511095047,"$GPGGA,204318.20,4029.0752773,N,10650.4429814,W,1,31,0.5,2070.322,M,-12.177,M,6.2,*4C"
2,0,0.0,7.53553009033,"$GPGGA,204319.20,4029.0752996,N,10650.4430087,W,1,31,0.5,2070.115,M,-12.177,M,7.2,*45"
4,0,0.0,8.58505916595,"$GPGGA,204320.20,4029.0754253,N,10650.4430909,W,1,31,0.5,2069.993,M,-12.177,M,8.2,*45"
13,0,0.0,9.54907608032,"$GPGGA,204321.20,4029.0758611,N,10650.4434394,W,1,31,0.5,2069.901,M,-12.177,M,1.2,*42"
23,0,0.0,10.5528659821,"$GPGGA,204322.20,4029.0761293,N,10650.4440081,W,4,31,0.7,2070.125,M,-12.177,M,2.2,0000*43"
33,0,0.0,11.5902442932,"$GPGGA,204323.20,4029.0765765,N,10650.4443668,W,4,31,0.7,2070.165,M,-12.177,M,1.2,0000*4F"
44,0,0.0,12.6096458435,"$GPGGA,204324.20,4029.0769953,N,10650.4447145,W,4,31,0.7,2070.236,M,-12.177,M,2.2,0000*45"
55,0,0.0,13.6611680984,"$GPGGA,204325.20,4029.0775700,N,10650.4452231,W,4,31,0.7,2070.272,M,-12.177,M,3.2,0000*44"
67,0,0.0,14.6072778702,"$GPGGA,204326.20,4029.0781383,N,10650.4457202,W,4,31,0.7,2070.325,M,-12.177,M,4.2,0000*42"
78,0,0.0,15.5764608383,"$GPGGA,204327.20,4029.0786077,N,10650.4461717,W,4,31,0.7,2070.406,M,-12.177,M,5.2,0000*4F"
89,0,0.0,16.6012649536,"$GPGGA,204328.20,4029.0790458,N,10650.4466104,W,4,30,0.8,2070.462,M,-12.177,M,6.2,0000*42"
100,0,0.0,17.6375255585,"$GPGGA,204329.20,4029.0795441,N,10650.4470553,W,4,30,0.8,2070.442,M,-12.177,M,1.2,0000*4A"
109,0,0.0,18.5923786163,"$GPGGA,204330.20,4029.0799639,N,10650.4474256,W,4,29,0.8,2070.454,M,-12.177,M,2.2,0000*49"
118,0,0.0,19.6265945435,"$GPGGA,204331.20,4029.0804107,N,10650.4478188,W,4,31,0.7,2070.478,M,-12.177,M,1.2,0000*4E"
129,0,0.0,20.6552696228,"$GPGGA,204332.20,4029.0808748,N,10650.4482204,W,4,31,0.7,2070.441,M,-12.177,M,2.2,0000*47"
141,0,0.0,21.6224956512,"$GPGGA,204333.20,4029.0813172,N,10650.4486277,W,4,30,0.7,2070.484,M,-12.177,M,1.2,0000*48"
151,0,0.0,22.5581188202,"$GPGGA,204334.20,4029.0818275,N,10650.4491813,W,4,30,0.7,2070.513,M,-12.177,M,2.2,0000*42"
163,0,0.0,23.5951023102,"$GPGGA,204335.20,4029.0823536,N,10650.4496595,W,4,30,0.7,2070.495,M,-12.177,M,3.2,0000*41"
173,0,0.0,24.5290241241,"$GPGGA,204336.20,4029.0828575,N,10650.4500251,W,4,30,0.7,2070.478,M,-12.177,M,4.2,0000*4B"
184,0,0.0,25.5553073883,"$GPGGA,204337.20,4029.0833705,N,10650.4504321,W,4,31,0.7,2070.431,M,-12.177,M,5.2,0000*4A"
194,0,0.0,26.5866584778,"$GPGGA,204338.20,4029.0837755,N,10650.4507674,W,4,29,0.7,2070.440,M,-12.177,M,2.2,0000*4A"
206,0,0.0,27.6078491211,"$GPGGA,204339.20,4029.0843201,N,10650.4512044,W,4,29,0.7,2070.407,M,-12.177,M,1.2,0000*4D"
217,0,0.0,28.6407871246,"$GPGGA,204340.20,4029.0848117,N,10650.4516350,W,4,28,0.9,2070.400,M,-12.177,M,2.2,0000*45"
228,0,0.0,29.5950717926,"$GPGGA,204341.20,4029.0853027,N,10650.4520653,W,4,29,0.8,2070.410,M,-12.177,M,3.2,0000*4F"
238,0,0.0,30.6224136353,"$GPGGA,204342.20,4029.0857358,N,10650.4524469,W,4,29,0.8,2070.462,M,-12.177,M,4.2,0000*4E"
248,0,0.0,31.6434631348,"$GPGGA,204343.20,4029.0861984,N,10650.4528813,W,4,26,0.8,2070.458,M,-12.177,M,1.2,0000*4F"
250,0,0.0,32.7342987061,"$GPGGA,204344.20,4029.0863888,N,10650.4529944,W,4,28,0.8,2070.457,M,-12.177,M,2.2,0000*47"
250,0,0.0,32.7345542908,"$GPGGA,204345.20,4029.0863775,N,10650.4529883,W,4,28,0.9,2070.480,M,-12.177,M,1.2,0000*49"
